[
    {
      "Postal Code": 2,
      "Place Name": "Pretoria",
      "Latitude": -25.7069,
      "Longitude": 28.2294
    },
    {
      "Postal Code": 3,
      "Place Name": "Pretoria",
      "Latitude": -25.7069,
      "Longitude": 28.2294
    },
    {
      "Postal Code": 4,
      "Place Name": "Pretoria",
      "Latitude": -25.7069,
      "Longitude": 28.2294
    },
    {
      "Postal Code": 5,
      "Place Name": "Pretoria",
      "Latitude": -25.7069,
      "Longitude": 28.2294
    },
    {
      "Postal Code": 6,
      "Place Name": "Pretoria",
      "Latitude": -25.7069,
      "Longitude": 28.2294
    },
    {
      "Postal Code": 7,
      "Place Name": "Pretoria",
      "Latitude": -25.7069,
      "Longitude": 28.2294
    },
    {
      "Postal Code": 8,
      "Place Name": "Atteridgeville",
      "Latitude": -25.7728,
      "Longitude": 28.0678
    },
    {
      "Postal Code": 9,
      "Place Name": "Pretoria",
      "Latitude": -25.7069,
      "Longitude": 28.2294
    },
    {
      "Postal Code": 10,
      "Place Name": "Pretoria",
      "Latitude": -25.7069,
      "Longitude": 28.2294
    },
    {
      "Postal Code": 11,
      "Place Name": "Pretoria",
      "Latitude": -25.7069,
      "Longitude": 28.2294
    },
    {
      "Postal Code": 12,
      "Place Name": "Pretoria",
      "Latitude": -25.7069,
      "Longitude": 28.2294
    },
    {
      "Postal Code": 14,
      "Place Name": "Pretoria",
      "Latitude": -25.7069,
      "Longitude": 28.2294
    },
    {
      "Postal Code": 16,
      "Place Name": "Pretoria",
      "Latitude": -25.7069,
      "Longitude": 28.2294
    },
    {
      "Postal Code": 17,
      "Place Name": "Doornpoort",
      "Latitude": -25.6333,
      "Longitude": 28.2667
    },
    {
      "Postal Code": 18,
      "Place Name": "Pretoria",
      "Latitude": -25.7069,
      "Longitude": 28.2294
    },
    {
      "Postal Code": 19,
      "Place Name": "Pretoria",
      "Latitude": -25.7069,
      "Longitude": 28.2294
    },
    {
      "Postal Code": 20,
      "Place Name": "Pretoria",
      "Latitude": -25.7069,
      "Longitude": 28.2294
    },
    {
      "Postal Code": 21,
      "Place Name": "Pretoria",
      "Latitude": -25.7069,
      "Longitude": 28.2294
    },
    {
      "Postal Code": 22,
      "Place Name": "Pretoria",
      "Latitude": -25.7069,
      "Longitude": 28.2294
    },
    {
      "Postal Code": 23,
      "Place Name": "Pretoria",
      "Latitude": -25.7069,
      "Longitude": 28.2294
    },
    {
      "Postal Code": 24,
      "Place Name": "Pretoria",
      "Latitude": -25.7069,
      "Longitude": 28.2294
    },
    {
      "Postal Code": 25,
      "Place Name": "Pretoria",
      "Latitude": -25.7069,
      "Longitude": 28.2294
    },
    {
      "Postal Code": 26,
      "Place Name": "Pretoria",
      "Latitude": -25.7069,
      "Longitude": 28.2294
    },
    {
      "Postal Code": 27,
      "Place Name": "Pretoria",
      "Latitude": -25.7069,
      "Longitude": 28.2294
    },
    {
      "Postal Code": 28,
      "Place Name": "Pretoria",
      "Latitude": -25.7069,
      "Longitude": 28.2294
    },
    {
      "Postal Code": 29,
      "Place Name": "Philip Nel Park",
      "Latitude": -25.7069,
      "Longitude": 28.2294
    },
    {
      "Postal Code": 30,
      "Place Name": "Pretoria",
      "Latitude": -25.7069,
      "Longitude": 28.2294
    },
    {
      "Postal Code": 31,
      "Place Name": "Pretoria",
      "Latitude": -25.7069,
      "Longitude": 28.2294
    },
    {
      "Postal Code": 32,
      "Place Name": "Pretoria",
      "Latitude": -25.7069,
      "Longitude": 28.2294
    },
    {
      "Postal Code": 33,
      "Place Name": "Pretoria",
      "Latitude": -25.7069,
      "Longitude": 28.2294
    },
    {
      "Postal Code": 35,
      "Place Name": "Pretoria",
      "Latitude": -25.7069,
      "Longitude": 28.2294
    },
    {
      "Postal Code": 36,
      "Place Name": "Pretoria",
      "Latitude": -25.7069,
      "Longitude": 28.2294
    },
    {
      "Postal Code": 37,
      "Place Name": "Laudium",
      "Latitude": -25.7833,
      "Longitude": 28.1
    },
    {
      "Postal Code": 39,
      "Place Name": "Pretoria",
      "Latitude": -25.7069,
      "Longitude": 28.2294
    },
    {
      "Postal Code": 40,
      "Place Name": "Menlo Park",
      "Latitude": -25.7711,
      "Longitude": 28.3078
    },
    {
      "Postal Code": 41,
      "Place Name": "Pretoria",
      "Latitude": -25.7069,
      "Longitude": 28.2294
    },
    {
      "Postal Code": 42,
      "Place Name": "Menlo Park",
      "Latitude": -25.7711,
      "Longitude": 28.3078
    },
    {
      "Postal Code": 43,
      "Place Name": "Pretoria",
      "Latitude": -25.7069,
      "Longitude": 28.2294
    },
    {
      "Postal Code": 44,
      "Place Name": "Moreletapark",
      "Latitude": -25.7069,
      "Longitude": 28.2294
    },
    {
      "Postal Code": 45,
      "Place Name": "Pretoria",
      "Latitude": -25.7069,
      "Longitude": 28.2294
    },
    {
      "Postal Code": 46,
      "Place Name": "Centurion",
      "Latitude": -25.8744,
      "Longitude": 28.1706
    },
    {
      "Postal Code": 47,
      "Place Name": "Pretoria",
      "Latitude": -25.7069,
      "Longitude": 28.2294
    },
    {
      "Postal Code": 48,
      "Place Name": "Pretoria",
      "Latitude": -25.7069,
      "Longitude": 28.2294
    },
    {
      "Postal Code": 49,
      "Place Name": "Pretoria",
      "Latitude": -25.7069,
      "Longitude": 28.2294
    },
    {
      "Postal Code": 50,
      "Place Name": "Wapadrand",
      "Latitude": -25.7069,
      "Longitude": 28.2294
    },
    {
      "Postal Code": 51,
      "Place Name": "Centurion",
      "Latitude": -25.8744,
      "Longitude": 28.1706
    },
    {
      "Postal Code": 52,
      "Place Name": "Pretoria",
      "Latitude": -25.7069,
      "Longitude": 28.2294
    },
    {
      "Postal Code": 53,
      "Place Name": "Pretoria",
      "Latitude": -25.7069,
      "Longitude": 28.2294
    },
    {
      "Postal Code": 54,
      "Place Name": "Pretoria",
      "Latitude": -25.7069,
      "Longitude": 28.2294
    },
    {
      "Postal Code": 55,
      "Place Name": "Pretoria",
      "Latitude": -25.7069,
      "Longitude": 28.2294
    },
    {
      "Postal Code": 56,
      "Place Name": "Pretoria",
      "Latitude": -25.7069,
      "Longitude": 28.2294
    },
    {
      "Postal Code": 57,
      "Place Name": "Pretoria",
      "Latitude": -25.7069,
      "Longitude": 28.2294
    },
    {
      "Postal Code": 58,
      "Place Name": "Pretoria",
      "Latitude": -25.7069,
      "Longitude": 28.2294
    },
    {
      "Postal Code": 59,
      "Place Name": "Pretoria",
      "Latitude": -25.7069,
      "Longitude": 28.2294
    },
    {
      "Postal Code": 60,
      "Place Name": "Menlo Park",
      "Latitude": -25.7711,
      "Longitude": 28.3078
    },
    {
      "Postal Code": 61,
      "Place Name": "Pretoria",
      "Latitude": -25.7069,
      "Longitude": 28.2294
    },
    {
      "Postal Code": 62,
      "Place Name": "Pretoria",
      "Latitude": -25.7069,
      "Longitude": 28.2294
    },
    {
      "Postal Code": 63,
      "Place Name": "Pretoria",
      "Latitude": -25.7069,
      "Longitude": 28.2294
    },
    {
      "Postal Code": 65,
      "Place Name": "Pretoria",
      "Latitude": -25.7069,
      "Longitude": 28.2294
    },
    {
      "Postal Code": 66,
      "Place Name": "Pretoria North",
      "Latitude": -25.6622,
      "Longitude": 28.1653
    },
    {
      "Postal Code": 68,
      "Place Name": "Hercules",
      "Latitude": -25.7167,
      "Longitude": 28.1833
    },
    {
      "Postal Code": 70,
      "Place Name": "Pretoria West",
      "Latitude": -25.75,
      "Longitude": 28.1667
    },
    {
      "Postal Code": 71,
      "Place Name": "Pretoria",
      "Latitude": -25.7069,
      "Longitude": 28.2294
    },
    {
      "Postal Code": 72,
      "Place Name": "Moreletapark",
      "Latitude": -25.651,
      "Longitude": 28.2387
    },
    {
      "Postal Code": 73,
      "Place Name": "Pretoria",
      "Latitude": -25.7069,
      "Longitude": 28.2294
    },
    {
      "Postal Code": 74,
      "Place Name": "Pretoria",
      "Latitude": -25.7069,
      "Longitude": 28.2294
    },
    {
      "Postal Code": 76,
      "Place Name": "Kromdraai",
      "Latitude": -25.4833,
      "Longitude": 28.2667
    },
    {
      "Postal Code": 78,
      "Place Name": "Pretoria",
      "Latitude": -25.7069,
      "Longitude": 28.2294
    },
    {
      "Postal Code": 79,
      "Place Name": "Pretoria",
      "Latitude": -25.7069,
      "Longitude": 28.2294
    },
    {
      "Postal Code": 80,
      "Place Name": "Pretoria",
      "Latitude": -25.7069,
      "Longitude": 28.2294
    },
    {
      "Postal Code": 81,
      "Place Name": "Pretoria",
      "Latitude": -25.7069,
      "Longitude": 28.2294
    },
    {
      "Postal Code": 82,
      "Place Name": "Pretoria",
      "Latitude": -25.7069,
      "Longitude": 28.2294
    },
    {
      "Postal Code": 83,
      "Place Name": "Pretoria",
      "Latitude": -25.75,
      "Longitude": 28.2333
    },
    {
      "Postal Code": 84,
      "Place Name": "Pretoria",
      "Latitude": -25.7069,
      "Longitude": 28.2294
    },
    {
      "Postal Code": 101,
      "Place Name": "Pretoria",
      "Latitude": -25.7069,
      "Longitude": 28.2294
    },
    {
      "Postal Code": 103,
      "Place Name": "Pretoria",
      "Latitude": -25.7069,
      "Longitude": 28.2294
    },
    {
      "Postal Code": 105,
      "Place Name": "Pretoria",
      "Latitude": -25.7069,
      "Longitude": 28.2294
    },
    {
      "Postal Code": 109,
      "Place Name": "Wierdapark",
      "Latitude": -25.7069,
      "Longitude": 28.2294
    },
    {
      "Postal Code": 110,
      "Place Name": "Pretoria",
      "Latitude": -25.7069,
      "Longitude": 28.2294
    },
    {
      "Postal Code": 112,
      "Place Name": "Mamelodi",
      "Latitude": -25.7072,
      "Longitude": 28.3472
    },
    {
      "Postal Code": 116,
      "Place Name": "Pretoria",
      "Latitude": -25.7069,
      "Longitude": 28.2294
    },
    {
      "Postal Code": 117,
      "Place Name": "Pretoria",
      "Latitude": -25.7069,
      "Longitude": 28.2294
    },
    {
      "Postal Code": 118,
      "Place Name": "Pretoria",
      "Latitude": -25.7069,
      "Longitude": 28.2294
    },
    {
      "Postal Code": 120,
      "Place Name": "Pyramid",
      "Latitude": -25.5814,
      "Longitude": 28.2319
    },
    {
      "Postal Code": 121,
      "Place Name": "Pretoria",
      "Latitude": -25.7069,
      "Longitude": 28.2294
    },
    {
      "Postal Code": 122,
      "Place Name": "Mamelodi",
      "Latitude": -25.7069,
      "Longitude": 28.2294
    },
    {
      "Postal Code": 125,
      "Place Name": "Pretoria",
      "Latitude": -25.7069,
      "Longitude": 28.2294
    },
    {
      "Postal Code": 126,
      "Place Name": "Pretoria",
      "Latitude": -25.7069,
      "Longitude": 28.2294
    },
    {
      "Postal Code": 127,
      "Place Name": "Pretoria",
      "Latitude": -25.7069,
      "Longitude": 28.2294
    },
    {
      "Postal Code": 128,
      "Place Name": "Pretoria",
      "Latitude": -25.7069,
      "Longitude": 28.2294
    },
    {
      "Postal Code": 129,
      "Place Name": "Pretoria",
      "Latitude": -25.7069,
      "Longitude": 28.2294
    },
    {
      "Postal Code": 132,
      "Place Name": "Pretoria",
      "Latitude": -25.7069,
      "Longitude": 28.2294
    },
    {
      "Postal Code": 134,
      "Place Name": "Pretoria",
      "Latitude": -25.7069,
      "Longitude": 28.2294
    },
    {
      "Postal Code": 135,
      "Place Name": "Pretoria",
      "Latitude": -25.7069,
      "Longitude": 28.2294
    },
    {
      "Postal Code": 137,
      "Place Name": "Pretoria",
      "Latitude": -25.7069,
      "Longitude": 28.2294
    },
    {
      "Postal Code": 139,
      "Place Name": "Pretoria",
      "Latitude": -25.7069,
      "Longitude": 28.2294
    },
    {
      "Postal Code": 142,
      "Place Name": "Pretoria",
      "Latitude": -25.7069,
      "Longitude": 28.2294
    },
    {
      "Postal Code": 143,
      "Place Name": "Pretoria",
      "Latitude": -25.7069,
      "Longitude": 28.2294
    },
    {
      "Postal Code": 145,
      "Place Name": "Waterkloof",
      "Latitude": -25.7069,
      "Longitude": 28.2294
    },
    {
      "Postal Code": 146,
      "Place Name": "Pretoria",
      "Latitude": -25.7069,
      "Longitude": 28.2294
    },
    {
      "Postal Code": 148,
      "Place Name": "Pretoria",
      "Latitude": -25.7069,
      "Longitude": 28.2294
    },
    {
      "Postal Code": 149,
      "Place Name": "Wierdapark",
      "Latitude": -25.7069,
      "Longitude": 28.2294
    },
    {
      "Postal Code": 150,
      "Place Name": "Magalieskruin",
      "Latitude": -25.7069,
      "Longitude": 28.2294
    },
    {
      "Postal Code": 151,
      "Place Name": "Pretoria",
      "Latitude": -25.7069,
      "Longitude": 28.2294
    },
    {
      "Postal Code": 152,
      "Place Name": "Soshanguve",
      "Latitude": -25.7069,
      "Longitude": 28.2294
    },
    {
      "Postal Code": 153,
      "Place Name": "Wingate Park",
      "Latitude": -25.8333,
      "Longitude": 28.25
    },
    {
      "Postal Code": 154,
      "Place Name": "Rooihuiskraal",
      "Latitude": -25.9,
      "Longitude": 28.1
    },
    {
      "Postal Code": 155,
      "Place Name": "Theresapark",
      "Latitude": -25.7069,
      "Longitude": 28.2294
    },
    {
      "Postal Code": 156,
      "Place Name": "Pretoria",
      "Latitude": -25.7069,
      "Longitude": 28.2294
    },
    {
      "Postal Code": 157,
      "Place Name": "Pretoria",
      "Latitude": -25.7069,
      "Longitude": 28.2294
    },
    {
      "Postal Code": 158,
      "Place Name": "The Reeds",
      "Latitude": -25.7069,
      "Longitude": 28.2294
    },
    {
      "Postal Code": 159,
      "Place Name": "Pretoria",
      "Latitude": -25.7069,
      "Longitude": 28.2294
    },
    {
      "Postal Code": 160,
      "Place Name": "Pretoria",
      "Latitude": -25.7069,
      "Longitude": 28.2294
    },
    {
      "Postal Code": 161,
      "Place Name": "Pretoria",
      "Latitude": -25.7069,
      "Longitude": 28.2294
    },
    {
      "Postal Code": 162,
      "Place Name": "Pretoria",
      "Latitude": -25.7069,
      "Longitude": 28.2294
    },
    {
      "Postal Code": 163,
      "Place Name": "Pretoria",
      "Latitude": -25.7069,
      "Longitude": 28.2294
    },
    {
      "Postal Code": 164,
      "Place Name": "Soshanguve",
      "Latitude": -25.5147,
      "Longitude": 28.1081
    },
    {
      "Postal Code": 165,
      "Place Name": "Pretoria",
      "Latitude": -25.7069,
      "Longitude": 28.2294
    },
    {
      "Postal Code": 166,
      "Place Name": "Pretoria",
      "Latitude": -25.7069,
      "Longitude": 28.2294
    },
    {
      "Postal Code": 167,
      "Place Name": "Pretoria",
      "Latitude": -25.7069,
      "Longitude": 28.2294
    },
    {
      "Postal Code": 168,
      "Place Name": "Pretoria",
      "Latitude": -25.7069,
      "Longitude": 28.2294
    },
    {
      "Postal Code": 169,
      "Place Name": "Highveld",
      "Latitude": -25.7069,
      "Longitude": 28.2294
    },
    {
      "Postal Code": 170,
      "Place Name": "Silverton",
      "Latitude": -25.7317,
      "Longitude": 28.3347
    },
    {
      "Postal Code": 171,
      "Place Name": "Centurion",
      "Latitude": -25.8744,
      "Longitude": 28.1706
    },
    {
      "Postal Code": 172,
      "Place Name": "Centurion",
      "Latitude": -25.8744,
      "Longitude": 28.1706
    },
    {
      "Postal Code": 173,
      "Place Name": "Wierdapark",
      "Latitude": -25.771,
      "Longitude": 28.2449
    },
    {
      "Postal Code": 174,
      "Place Name": "Pretoria",
      "Latitude": -25.7069,
      "Longitude": 28.2294
    },
    {
      "Postal Code": 177,
      "Place Name": "Mamelodi",
      "Latitude": -25.7072,
      "Longitude": 28.3472
    },
    {
      "Postal Code": 179,
      "Place Name": "Pretoria",
      "Latitude": -25.7069,
      "Longitude": 28.2294
    },
    {
      "Postal Code": 181,
      "Place Name": "Waterkloof",
      "Latitude": -25.7781,
      "Longitude": 28.2358
    },
    {
      "Postal Code": 182,
      "Place Name": "Pretoria-Noord",
      "Latitude": -25.6622,
      "Longitude": 28.1653
    },
    {
      "Postal Code": 183,
      "Place Name": "Pretoria-Wes",
      "Latitude": -25.75,
      "Longitude": 28.1667
    },
    {
      "Postal Code": 184,
      "Place Name": "Silverton",
      "Latitude": -25.7069,
      "Longitude": 28.2294
    },
    {
      "Postal Code": 185,
      "Place Name": "Valhalla",
      "Latitude": -25.8117,
      "Longitude": 28.1503
    },
    {
      "Postal Code": 186,
      "Place Name": "Doornpoort",
      "Latitude": -25.7069,
      "Longitude": 28.2294
    },
    {
      "Postal Code": 187,
      "Place Name": "Voortrekkerhoogte",
      "Latitude": -25.8,
      "Longitude": 28.1167
    },
    {
      "Postal Code": 188,
      "Place Name": "Pretoria",
      "Latitude": -25.7069,
      "Longitude": 28.2294
    },
    {
      "Postal Code": 189,
      "Place Name": "Brits",
      "Latitude": -25.6333,
      "Longitude": 27.7833
    },
    {
      "Postal Code": 190,
      "Place Name": "Mabopane",
      "Latitude": -25.5072,
      "Longitude": 28.1075
    },
    {
      "Postal Code": 191,
      "Place Name": "Mabopane",
      "Latitude": -25.5072,
      "Longitude": 28.1075
    },
    {
      "Postal Code": 192,
      "Place Name": "Mabopane",
      "Latitude": -25.5072,
      "Longitude": 28.1075
    },
    {
      "Postal Code": 193,
      "Place Name": "Mabopane",
      "Latitude": -25.5072,
      "Longitude": 28.1075
    },
    {
      "Postal Code": 194,
      "Place Name": "Mabopane",
      "Latitude": -25.5072,
      "Longitude": 28.1075
    },
    {
      "Postal Code": 195,
      "Place Name": "Mogwase",
      "Latitude": -25.2667,
      "Longitude": 27.2333
    },
    {
      "Postal Code": 197,
      "Place Name": "Mabopane",
      "Latitude": -25.5072,
      "Longitude": 28.1075
    },
    {
      "Postal Code": 198,
      "Place Name": "Mabopane",
      "Latitude": -25.5072,
      "Longitude": 28.1075
    },
    {
      "Postal Code": 199,
      "Place Name": "Mabopane",
      "Latitude": -25.5072,
      "Longitude": 28.1075
    },
    {
      "Postal Code": 200,
      "Place Name": "Rosslyn",
      "Latitude": -25.6242,
      "Longitude": 28.0942
    },
    {
      "Postal Code": 201,
      "Place Name": "Boordfontein West",
      "Latitude": -25.7069,
      "Longitude": 28.2294
    },
    {
      "Postal Code": 202,
      "Place Name": "Rustenburg",
      "Latitude": -25.6667,
      "Longitude": 27.25
    },
    {
      "Postal Code": 204,
      "Place Name": "Pretoria",
      "Latitude": -25.6189,
      "Longitude": 28.0228
    },
    {
      "Postal Code": 207,
      "Place Name": "Mabopane",
      "Latitude": -25.5072,
      "Longitude": 28.1075
    },
    {
      "Postal Code": 208,
      "Place Name": "Ga-Rankuwa",
      "Latitude": -25.5883,
      "Longitude": 28.0078
    },
    {
      "Postal Code": 210,
      "Place Name": "Brits",
      "Latitude": -25.6333,
      "Longitude": 27.7833
    },
    {
      "Postal Code": 211,
      "Place Name": "Mabopane",
      "Latitude": -25.5072,
      "Longitude": 28.1075
    },
    {
      "Postal Code": 212,
      "Place Name": "Mabopane",
      "Latitude": -25.5072,
      "Longitude": 28.1075
    },
    {
      "Postal Code": 213,
      "Place Name": "Mabopane",
      "Latitude": -25.5072,
      "Longitude": 28.1075
    },
    {
      "Postal Code": 214,
      "Place Name": "Mabopane",
      "Latitude": -25.5072,
      "Longitude": 28.1075
    },
    {
      "Postal Code": 215,
      "Place Name": "Mabopane",
      "Latitude": -25.5072,
      "Longitude": 28.1075
    },
    {
      "Postal Code": 216,
      "Place Name": "Hartbeespoort",
      "Latitude": -25.7333,
      "Longitude": 27.85
    },
    {
      "Postal Code": 217,
      "Place Name": "Brits",
      "Latitude": -25.6333,
      "Longitude": 27.7833
    },
    {
      "Postal Code": 218,
      "Place Name": "Mabopane",
      "Latitude": -25.5072,
      "Longitude": 28.1075
    },
    {
      "Postal Code": 219,
      "Place Name": "Mabopane",
      "Latitude": -25.5072,
      "Longitude": 28.1075
    },
    {
      "Postal Code": 220,
      "Place Name": "Brits",
      "Latitude": -25.6333,
      "Longitude": 27.7833
    },
    {
      "Postal Code": 232,
      "Place Name": "Brits",
      "Latitude": -25.6333,
      "Longitude": 27.7833
    },
    {
      "Postal Code": 240,
      "Place Name": "Brits",
      "Latitude": -25.6333,
      "Longitude": 27.7833
    },
    {
      "Postal Code": 250,
      "Place Name": "Brits",
      "Latitude": -25.6333,
      "Longitude": 27.7833
    },
    {
      "Postal Code": 251,
      "Place Name": "Brits",
      "Latitude": -25.6333,
      "Longitude": 27.7833
    },
    {
      "Postal Code": 252,
      "Place Name": "Brits",
      "Latitude": -25.6333,
      "Longitude": 27.7833
    },
    {
      "Postal Code": 253,
      "Place Name": "Brits",
      "Latitude": -25.6333,
      "Longitude": 27.7833
    },
    {
      "Postal Code": 255,
      "Place Name": "Brits",
      "Latitude": -25.6333,
      "Longitude": 27.7833
    },
    {
      "Postal Code": 257,
      "Place Name": "Brits",
      "Latitude": -25.6333,
      "Longitude": 27.7833
    },
    {
      "Postal Code": 258,
      "Place Name": "Brits",
      "Latitude": -25.6333,
      "Longitude": 27.7833
    },
    {
      "Postal Code": 259,
      "Place Name": "Brits",
      "Latitude": -25.6333,
      "Longitude": 27.7833
    },
    {
      "Postal Code": 260,
      "Place Name": "Brits",
      "Latitude": -25.6333,
      "Longitude": 27.7833
    },
    {
      "Postal Code": 261,
      "Place Name": "Brits",
      "Latitude": -25.6333,
      "Longitude": 27.7833
    },
    {
      "Postal Code": 264,
      "Place Name": "Letlhabile",
      "Latitude": -25.6333,
      "Longitude": 27.7833
    },
    {
      "Postal Code": 265,
      "Place Name": "Brits",
      "Latitude": -25.6333,
      "Longitude": 27.7833
    },
    {
      "Postal Code": 267,
      "Place Name": "Brits",
      "Latitude": -25.6333,
      "Longitude": 27.7833
    },
    {
      "Postal Code": 268,
      "Place Name": "Brits",
      "Latitude": -25.6333,
      "Longitude": 27.7833
    },
    {
      "Postal Code": 269,
      "Place Name": "Brits",
      "Latitude": -25.6333,
      "Longitude": 27.7833
    },
    {
      "Postal Code": 270,
      "Place Name": "Brits",
      "Latitude": -25.6333,
      "Longitude": 27.7833
    },
    {
      "Postal Code": 271,
      "Place Name": "Brits",
      "Latitude": -25.6333,
      "Longitude": 27.7833
    },
    {
      "Postal Code": 273,
      "Place Name": "Brits",
      "Latitude": -25.6333,
      "Longitude": 27.7833
    },
    {
      "Postal Code": 274,
      "Place Name": "Brits",
      "Latitude": -25.6333,
      "Longitude": 27.7833
    },
    {
      "Postal Code": 275,
      "Place Name": "Brits",
      "Latitude": -25.6333,
      "Longitude": 27.7833
    },
    {
      "Postal Code": 276,
      "Place Name": "Brits",
      "Latitude": -25.6333,
      "Longitude": 27.7833
    },
    {
      "Postal Code": 277,
      "Place Name": "Brits",
      "Latitude": -25.6333,
      "Longitude": 27.7833
    },
    {
      "Postal Code": 284,
      "Place Name": "Marikana",
      "Latitude": -25.613,
      "Longitude": 27.8843
    },
    {
      "Postal Code": 285,
      "Place Name": "Marikana",
      "Latitude": -25.613,
      "Longitude": 27.8843
    },
    {
      "Postal Code": 286,
      "Place Name": "Marikana",
      "Latitude": -25.613,
      "Longitude": 27.8843
    },
    {
      "Postal Code": 287,
      "Place Name": "Rustenburg",
      "Latitude": -25.6667,
      "Longitude": 27.25
    },
    {
      "Postal Code": 292,
      "Place Name": "Rustenburg",
      "Latitude": -25.6667,
      "Longitude": 27.25
    },
    {
      "Postal Code": 299,
      "Place Name": "Rustenberg",
      "Latitude": -25.613,
      "Longitude": 27.8843
    },
    {
      "Postal Code": 301,
      "Place Name": "Rustenburg",
      "Latitude": -25.6667,
      "Longitude": 27.25
    },
    {
      "Postal Code": 302,
      "Place Name": "Rustenburg",
      "Latitude": -25.6667,
      "Longitude": 27.25
    },
    {
      "Postal Code": 303,
      "Place Name": "Rustenburg",
      "Latitude": -25.6667,
      "Longitude": 27.25
    },
    {
      "Postal Code": 305,
      "Place Name": "Rustenburg",
      "Latitude": -25.6666,
      "Longitude": 27.25
    },
    {
      "Postal Code": 306,
      "Place Name": "Rustenburg",
      "Latitude": -25.6667,
      "Longitude": 27.25
    },
    {
      "Postal Code": 307,
      "Place Name": "Rustenburg",
      "Latitude": -25.6667,
      "Longitude": 27.25
    },
    {
      "Postal Code": 308,
      "Place Name": "Rustenburg",
      "Latitude": -25.6667,
      "Longitude": 27.25
    },
    {
      "Postal Code": 309,
      "Place Name": "Rustenburg",
      "Latitude": -24.9333,
      "Longitude": 27.15
    },
    {
      "Postal Code": 310,
      "Place Name": "Rustenburg",
      "Latitude": -25.6667,
      "Longitude": 27.25
    },
    {
      "Postal Code": 311,
      "Place Name": "Rustenburg",
      "Latitude": -25.6667,
      "Longitude": 27.25
    },
    {
      "Postal Code": 312,
      "Place Name": "Rustenburg",
      "Latitude": -25.6667,
      "Longitude": 27.25
    },
    {
      "Postal Code": 313,
      "Place Name": "Rustenburg",
      "Latitude": -25.6667,
      "Longitude": 27.25
    },
    {
      "Postal Code": 314,
      "Place Name": "Rustenburg",
      "Latitude": -25.6667,
      "Longitude": 27.25
    },
    {
      "Postal Code": 315,
      "Place Name": "Rustenburg",
      "Latitude": -25.6667,
      "Longitude": 27.25
    },
    {
      "Postal Code": 316,
      "Place Name": "Rustenburg",
      "Latitude": -25.6667,
      "Longitude": 27.25
    },
    {
      "Postal Code": 317,
      "Place Name": "Marikana",
      "Latitude": -25.575,
      "Longitude": 27.2375
    },
    {
      "Postal Code": 318,
      "Place Name": "Saulspoort",
      "Latitude": -24.9333,
      "Longitude": 27.15
    },
    {
      "Postal Code": 319,
      "Place Name": "Thabazimbi",
      "Latitude": -24.6,
      "Longitude": 27.4
    },
    {
      "Postal Code": 320,
      "Place Name": "Rustenburg",
      "Latitude": -25.6667,
      "Longitude": 27.25
    },
    {
      "Postal Code": 322,
      "Place Name": "Rustenburg",
      "Latitude": -25.6667,
      "Longitude": 27.25
    },
    {
      "Postal Code": 324,
      "Place Name": "Rustenburg",
      "Latitude": -24.9333,
      "Longitude": 27.15
    },
    {
      "Postal Code": 328,
      "Place Name": "Rustenburg",
      "Latitude": -25.6667,
      "Longitude": 27.25
    },
    {
      "Postal Code": 330,
      "Place Name": "Rustenburg",
      "Latitude": -25.6667,
      "Longitude": 27.25
    },
    {
      "Postal Code": 331,
      "Place Name": "Rustenburg",
      "Latitude": -25.6667,
      "Longitude": 27.25
    },
    {
      "Postal Code": 332,
      "Place Name": "Rustenburg",
      "Latitude": -25.6667,
      "Longitude": 27.25
    },
    {
      "Postal Code": 333,
      "Place Name": "Rustenburg",
      "Latitude": -25.6667,
      "Longitude": 27.25
    },
    {
      "Postal Code": 334,
      "Place Name": "Rustenburg",
      "Latitude": -25.6667,
      "Longitude": 27.25
    },
    {
      "Postal Code": 335,
      "Place Name": "Rustenburg",
      "Latitude": -25.6667,
      "Longitude": 27.25
    },
    {
      "Postal Code": 336,
      "Place Name": "Rustenburg",
      "Latitude": -25.6667,
      "Longitude": 27.25
    },
    {
      "Postal Code": 337,
      "Place Name": "Rustenburg",
      "Latitude": -25.6667,
      "Longitude": 27.25
    },
    {
      "Postal Code": 338,
      "Place Name": "Rustenburg",
      "Latitude": -24.9333,
      "Longitude": 27.15
    },
    {
      "Postal Code": 340,
      "Place Name": "Rustenburg",
      "Latitude": -25.6667,
      "Longitude": 27.25
    },
    {
      "Postal Code": 341,
      "Place Name": "Rustenburg",
      "Latitude": -25.6667,
      "Longitude": 27.25
    },
    {
      "Postal Code": 342,
      "Place Name": "Rustenburg",
      "Latitude": -25.6667,
      "Longitude": 27.25
    },
    {
      "Postal Code": 344,
      "Place Name": "Rustenburg",
      "Latitude": -25.6667,
      "Longitude": 27.25
    },
    {
      "Postal Code": 345,
      "Place Name": "Rustenburg",
      "Latitude": -25.6667,
      "Longitude": 27.25
    },
    {
      "Postal Code": 346,
      "Place Name": "Rustenburg",
      "Latitude": -25.6667,
      "Longitude": 27.25
    },
    {
      "Postal Code": 347,
      "Place Name": "Rustenburg",
      "Latitude": -25.6667,
      "Longitude": 27.25
    },
    {
      "Postal Code": 348,
      "Place Name": "Koster",
      "Latitude": -25.8667,
      "Longitude": 26.9
    },
    {
      "Postal Code": 349,
      "Place Name": "Rustenburg",
      "Latitude": -25.6667,
      "Longitude": 27.25
    },
    {
      "Postal Code": 350,
      "Place Name": "Rustenburg",
      "Latitude": -25.6667,
      "Longitude": 27.25
    },
    {
      "Postal Code": 351,
      "Place Name": "Swartklip",
      "Latitude": -24.9333,
      "Longitude": 27.15
    },
    {
      "Postal Code": 353,
      "Place Name": "Rustenburg",
      "Latitude": -25.6667,
      "Longitude": 27.25
    },
    {
      "Postal Code": 354,
      "Place Name": "Rustenburg",
      "Latitude": -25.6667,
      "Longitude": 27.25
    },
    {
      "Postal Code": 355,
      "Place Name": "Rustenburg",
      "Latitude": -25.6667,
      "Longitude": 27.25
    },
    {
      "Postal Code": 356,
      "Place Name": "Rustenburg",
      "Latitude": -25.6667,
      "Longitude": 27.25
    },
    {
      "Postal Code": 357,
      "Place Name": "Mafikeng",
      "Latitude": -25.8667,
      "Longitude": 25.65
    },
    {
      "Postal Code": 358,
      "Place Name": "Rustenburg",
      "Latitude": -24.9333,
      "Longitude": 27.15
    },
    {
      "Postal Code": 361,
      "Place Name": "Thabazimbi",
      "Latitude": -24.6,
      "Longitude": 27.4
    },
    {
      "Postal Code": 362,
      "Place Name": "Chromite",
      "Latitude": -24.6,
      "Longitude": 27.4
    },
    {
      "Postal Code": 363,
      "Place Name": "Thabazimbi",
      "Latitude": -24.6,
      "Longitude": 27.4
    },
    {
      "Postal Code": 364,
      "Place Name": "Rustenburg",
      "Latitude": -25.6667,
      "Longitude": 27.25
    },
    {
      "Postal Code": 365,
      "Place Name": "Rustenburg",
      "Latitude": -24.9333,
      "Longitude": 27.15
    },
    {
      "Postal Code": 366,
      "Place Name": "Rustenburg",
      "Latitude": -24.9333,
      "Longitude": 27.15
    },
    {
      "Postal Code": 367,
      "Place Name": "Rustenburg",
      "Latitude": -24.9333,
      "Longitude": 27.15
    },
    {
      "Postal Code": 369,
      "Place Name": "Koster",
      "Latitude": -25.8667,
      "Longitude": 26.9
    },
    {
      "Postal Code": 371,
      "Place Name": "Mogwase",
      "Latitude": -25.2667,
      "Longitude": 27.2333
    },
    {
      "Postal Code": 372,
      "Place Name": "Mogwase",
      "Latitude": -25.1833,
      "Longitude": 27.2667
    },
    {
      "Postal Code": 374,
      "Place Name": "Saulspoort",
      "Latitude": -25.1667,
      "Longitude": 27.1667
    },
    {
      "Postal Code": 375,
      "Place Name": "Swartklip",
      "Latitude": -24.9333,
      "Longitude": 27.15
    },
    {
      "Postal Code": 378,
      "Place Name": "Rustenburg",
      "Latitude": -25.6667,
      "Longitude": 27.25
    },
    {
      "Postal Code": 379,
      "Place Name": "Mogwase",
      "Latitude": -25.2667,
      "Longitude": 27.2333
    },
    {
      "Postal Code": 380,
      "Place Name": "Thabazimbi",
      "Latitude": -24.6,
      "Longitude": 27.4
    },
    {
      "Postal Code": 381,
      "Place Name": "Thabazimbi",
      "Latitude": -24.6,
      "Longitude": 27.4
    },
    {
      "Postal Code": 382,
      "Place Name": "Thabazimbi",
      "Latitude": -24.6,
      "Longitude": 27.4
    },
    {
      "Postal Code": 383,
      "Place Name": "Thabazimbi",
      "Latitude": -24.6,
      "Longitude": 27.4
    },
    {
      "Postal Code": 384,
      "Place Name": "Thabazimbi",
      "Latitude": -24.6,
      "Longitude": 27.4
    },
    {
      "Postal Code": 385,
      "Place Name": "Thabazimbi",
      "Latitude": -24.6,
      "Longitude": 27.4
    },
    {
      "Postal Code": 386,
      "Place Name": "Podiphatshwa",
      "Latitude": -24.6,
      "Longitude": 27.4
    },
    {
      "Postal Code": 387,
      "Place Name": "Regorogile",
      "Latitude": -24.6,
      "Longitude": 27.4
    },
    {
      "Postal Code": 388,
      "Place Name": "Mogwase",
      "Latitude": -25.2667,
      "Longitude": 27.2333
    },
    {
      "Postal Code": 390,
      "Place Name": "Rustenburg",
      "Latitude": -24.9333,
      "Longitude": 27.15
    },
    {
      "Postal Code": 393,
      "Place Name": "Rustenberg",
      "Latitude": -25.2,
      "Longitude": 27.2167
    },
    {
      "Postal Code": 394,
      "Place Name": "Mogwase",
      "Latitude": -25.2667,
      "Longitude": 27.2333
    },
    {
      "Postal Code": 396,
      "Place Name": "Mogwase",
      "Latitude": -25.2667,
      "Longitude": 27.2333
    },
    {
      "Postal Code": 397,
      "Place Name": "Mogwase",
      "Latitude": -25.2667,
      "Longitude": 27.2333
    },
    {
      "Postal Code": 398,
      "Place Name": "Mogwase",
      "Latitude": -25.2667,
      "Longitude": 27.2333
    },
    {
      "Postal Code": 399,
      "Place Name": "Saulspoort",
      "Latitude": -25.1667,
      "Longitude": 27.1667
    },
    {
      "Postal Code": 400,
      "Place Name": "Hammanskraal",
      "Latitude": -25.4075,
      "Longitude": 28.2856
    },
    {
      "Postal Code": 402,
      "Place Name": "Hammanskraal",
      "Latitude": -25.4075,
      "Longitude": 28.2856
    },
    {
      "Postal Code": 404,
      "Place Name": "Hammanskraal",
      "Latitude": -25.4075,
      "Longitude": 28.2856
    },
    {
      "Postal Code": 405,
      "Place Name": "Rust De Winter",
      "Latitude": -25.1986,
      "Longitude": 28.6092
    },
    {
      "Postal Code": 406,
      "Place Name": "Warmbaths",
      "Latitude": -24.8833,
      "Longitude": 28.2833
    },
    {
      "Postal Code": 407,
      "Place Name": "Hammanskraal",
      "Latitude": -25.4075,
      "Longitude": 28.2856
    },
    {
      "Postal Code": 408,
      "Place Name": "Temba",
      "Latitude": -25.365,
      "Longitude": 28.2189
    },
    {
      "Postal Code": 409,
      "Place Name": "Temba",
      "Latitude": -25.365,
      "Longitude": 28.2189
    },
    {
      "Postal Code": 410,
      "Place Name": "Temba",
      "Latitude": -25.365,
      "Longitude": 28.2189
    },
    {
      "Postal Code": 411,
      "Place Name": "Temba",
      "Latitude": -25.365,
      "Longitude": 28.2189
    },
    {
      "Postal Code": 412,
      "Place Name": "Mphe-Batho",
      "Latitude": -25.343,
      "Longitude": 28.2204
    },
    {
      "Postal Code": 413,
      "Place Name": "Mutlestad",
      "Latitude": -25.343,
      "Longitude": 28.2204
    },
    {
      "Postal Code": 414,
      "Place Name": "Hammanskraal",
      "Latitude": -25.4075,
      "Longitude": 28.2856
    },
    {
      "Postal Code": 415,
      "Place Name": "Temba",
      "Latitude": -25.365,
      "Longitude": 28.2189
    },
    {
      "Postal Code": 416,
      "Place Name": "Temba",
      "Latitude": -25.365,
      "Longitude": 28.2189
    },
    {
      "Postal Code": 417,
      "Place Name": "Hammanskraal",
      "Latitude": -25.4075,
      "Longitude": 28.2856
    },
    {
      "Postal Code": 418,
      "Place Name": "Temba",
      "Latitude": -25.365,
      "Longitude": 28.2189
    },
    {
      "Postal Code": 419,
      "Place Name": "Temba",
      "Latitude": -25.365,
      "Longitude": 28.2189
    },
    {
      "Postal Code": 420,
      "Place Name": "Warmbaths",
      "Latitude": -24.8833,
      "Longitude": 28.2833
    },
    {
      "Postal Code": 426,
      "Place Name": "Hammanskraal",
      "Latitude": -25.4075,
      "Longitude": 28.2856
    },
    {
      "Postal Code": 427,
      "Place Name": "Hammanskraal",
      "Latitude": -25.4075,
      "Longitude": 28.2856
    },
    {
      "Postal Code": 428,
      "Place Name": "Temba",
      "Latitude": -25.365,
      "Longitude": 28.2189
    },
    {
      "Postal Code": 429,
      "Place Name": "Hammanskraal",
      "Latitude": -25.4075,
      "Longitude": 28.2856
    },
    {
      "Postal Code": 430,
      "Place Name": "Warmbaths",
      "Latitude": -24.95,
      "Longitude": 28.5333
    },
    {
      "Postal Code": 431,
      "Place Name": "Skilpadfontein",
      "Latitude": -25.0167,
      "Longitude": 28.8
    },
    {
      "Postal Code": 432,
      "Place Name": "Bamokgoko",
      "Latitude": -25.1039,
      "Longitude": 28.5219
    },
    {
      "Postal Code": 433,
      "Place Name": "Nylstroom",
      "Latitude": -24.7,
      "Longitude": 28.4
    },
    {
      "Postal Code": 434,
      "Place Name": "Hammanskraal",
      "Latitude": -25.4075,
      "Longitude": 28.2856
    },
    {
      "Postal Code": 435,
      "Place Name": "Hammanskraal",
      "Latitude": -25.4075,
      "Longitude": 28.2856
    },
    {
      "Postal Code": 436,
      "Place Name": "Nylstroom",
      "Latitude": -24.7,
      "Longitude": 28.4
    },
    {
      "Postal Code": 437,
      "Place Name": "Nylstroom",
      "Latitude": -24.7,
      "Longitude": 28.4
    },
    {
      "Postal Code": 438,
      "Place Name": "Temba",
      "Latitude": -25.365,
      "Longitude": 28.2189
    },
    {
      "Postal Code": 439,
      "Place Name": "Temba",
      "Latitude": -25.365,
      "Longitude": 28.2189
    },
    {
      "Postal Code": 440,
      "Place Name": "Temba",
      "Latitude": -25.365,
      "Longitude": 28.2189
    },
    {
      "Postal Code": 441,
      "Place Name": "Temba",
      "Latitude": -25.365,
      "Longitude": 28.2189
    },
    {
      "Postal Code": 442,
      "Place Name": "Temba",
      "Latitude": -25.365,
      "Longitude": 28.2189
    },
    {
      "Postal Code": 443,
      "Place Name": "Temba",
      "Latitude": -25.365,
      "Longitude": 28.2189
    },
    {
      "Postal Code": 444,
      "Place Name": "Temba",
      "Latitude": -25.365,
      "Longitude": 28.2189
    },
    {
      "Postal Code": 445,
      "Place Name": "Temba",
      "Latitude": -25.365,
      "Longitude": 28.2189
    },
    {
      "Postal Code": 447,
      "Place Name": "Temba",
      "Latitude": -25.365,
      "Longitude": 28.2189
    },
    {
      "Postal Code": 448,
      "Place Name": "Temba",
      "Latitude": -25.365,
      "Longitude": 28.2189
    },
    {
      "Postal Code": 449,
      "Place Name": "Marble Hall",
      "Latitude": -24.9667,
      "Longitude": 29.3
    },
    {
      "Postal Code": 450,
      "Place Name": "Marble Hall",
      "Latitude": -24.9667,
      "Longitude": 29.3
    },
    {
      "Postal Code": 451,
      "Place Name": "Marble Hall",
      "Latitude": -24.9667,
      "Longitude": 29.3
    },
    {
      "Postal Code": 452,
      "Place Name": "Xipame",
      "Latitude": -24.9667,
      "Longitude": 29.3
    },
    {
      "Postal Code": 453,
      "Place Name": "Marble Hall",
      "Latitude": -24.9667,
      "Longitude": 29.3
    },
    {
      "Postal Code": 454,
      "Place Name": "Marble Hall",
      "Latitude": -24.9667,
      "Longitude": 29.3
    },
    {
      "Postal Code": 455,
      "Place Name": "Marble Hall",
      "Latitude": -24.9667,
      "Longitude": 29.3
    },
    {
      "Postal Code": 456,
      "Place Name": "Marble Hall",
      "Latitude": -24.9667,
      "Longitude": 29.3
    },
    {
      "Postal Code": 457,
      "Place Name": "Dibasabophelo",
      "Latitude": -24.9667,
      "Longitude": 29.3
    },
    {
      "Postal Code": 458,
      "Place Name": "Empumalanga",
      "Latitude": -25.3167,
      "Longitude": 31.1
    },
    {
      "Postal Code": 459,
      "Place Name": "Marble Hall",
      "Latitude": -24.9667,
      "Longitude": 29.3
    },
    {
      "Postal Code": 460,
      "Place Name": "Marble Hall",
      "Latitude": -24.9667,
      "Longitude": 29.3
    },
    {
      "Postal Code": 462,
      "Place Name": "Siyabuswa",
      "Latitude": -25.1167,
      "Longitude": 29.05
    },
    {
      "Postal Code": 464,
      "Place Name": "Marble Hall",
      "Latitude": -24.9667,
      "Longitude": 29.3
    },
    {
      "Postal Code": 465,
      "Place Name": "Marble Hall",
      "Latitude": -24.9667,
      "Longitude": 29.3
    },
    {
      "Postal Code": 466,
      "Place Name": "Marble Hall",
      "Latitude": -24.9667,
      "Longitude": 29.3
    },
    {
      "Postal Code": 467,
      "Place Name": "Marble Hall",
      "Latitude": -24.9667,
      "Longitude": 29.3
    },
    {
      "Postal Code": 468,
      "Place Name": "Marble Hall",
      "Latitude": -24.9667,
      "Longitude": 29.3
    },
    {
      "Postal Code": 469,
      "Place Name": "Siyabuswa",
      "Latitude": -25.1167,
      "Longitude": 29.05
    },
    {
      "Postal Code": 470,
      "Place Name": "Groblersdal",
      "Latitude": -25.15,
      "Longitude": 29.3833
    },
    {
      "Postal Code": 472,
      "Place Name": "Marble Hall",
      "Latitude": -24.9667,
      "Longitude": 29.3
    },
    {
      "Postal Code": 473,
      "Place Name": "Groblersdal",
      "Latitude": -25.15,
      "Longitude": 29.3833
    },
    {
      "Postal Code": 474,
      "Place Name": "Boleu",
      "Latitude": -25.15,
      "Longitude": 29.3833
    },
    {
      "Postal Code": 475,
      "Place Name": "Siyabuswa",
      "Latitude": -25.1167,
      "Longitude": 29.05
    },
    {
      "Postal Code": 477,
      "Place Name": "Siyabuswa",
      "Latitude": -25.1167,
      "Longitude": 29.05
    },
    {
      "Postal Code": 478,
      "Place Name": "Marble Hall",
      "Latitude": -24.9667,
      "Longitude": 29.3
    },
    {
      "Postal Code": 479,
      "Place Name": "Marble Hall",
      "Latitude": -24.9667,
      "Longitude": 29.3
    },
    {
      "Postal Code": 480,
      "Place Name": "Warmbaths",
      "Latitude": -24.8833,
      "Longitude": 28.2833
    },
    {
      "Postal Code": 482,
      "Place Name": "Warmbad",
      "Latitude": -24.8833,
      "Longitude": 28.2833
    },
    {
      "Postal Code": 483,
      "Place Name": "Warmbaths",
      "Latitude": -24.8833,
      "Longitude": 28.2833
    },
    {
      "Postal Code": 484,
      "Place Name": "Marble Hall",
      "Latitude": -24.9667,
      "Longitude": 29.3
    },
    {
      "Postal Code": 485,
      "Place Name": "Groblersdal",
      "Latitude": -25.15,
      "Longitude": 29.3833
    },
    {
      "Postal Code": 486,
      "Place Name": "Thabazimbi",
      "Latitude": -24.6,
      "Longitude": 27.4
    },
    {
      "Postal Code": 487,
      "Place Name": "Thabazimbi",
      "Latitude": -24.6,
      "Longitude": 27.4
    },
    {
      "Postal Code": 490,
      "Place Name": "Groblersdal",
      "Latitude": -25.15,
      "Longitude": 29.3833
    },
    {
      "Postal Code": 491,
      "Place Name": "Groblersdal",
      "Latitude": -25.15,
      "Longitude": 29.3833
    },
    {
      "Postal Code": 492,
      "Place Name": "Warmbaths",
      "Latitude": -24.8833,
      "Longitude": 28.2833
    },
    {
      "Postal Code": 493,
      "Place Name": "Siyabuswa",
      "Latitude": -25.1167,
      "Longitude": 29.05
    },
    {
      "Postal Code": 494,
      "Place Name": "Siyabuswa",
      "Latitude": -25.1167,
      "Longitude": 29.05
    },
    {
      "Postal Code": 495,
      "Place Name": "Siyabuswa",
      "Latitude": -25.1167,
      "Longitude": 29.05
    },
    {
      "Postal Code": 498,
      "Place Name": "Temba",
      "Latitude": -25.365,
      "Longitude": 28.2189
    },
    {
      "Postal Code": 499,
      "Place Name": "Temba",
      "Latitude": -25.365,
      "Longitude": 28.2189
    },
    {
      "Postal Code": 500,
      "Place Name": "Thabazimbi",
      "Latitude": -24.6,
      "Longitude": 27.4
    },
    {
      "Postal Code": 501,
      "Place Name": "Temba",
      "Latitude": -25.365,
      "Longitude": 28.2189
    },
    {
      "Postal Code": 502,
      "Place Name": "Temba",
      "Latitude": -25.365,
      "Longitude": 28.2189
    },
    {
      "Postal Code": 503,
      "Place Name": "Temba",
      "Latitude": -25.365,
      "Longitude": 28.2189
    },
    {
      "Postal Code": 504,
      "Place Name": "Temba",
      "Latitude": -25.365,
      "Longitude": 28.2189
    },
    {
      "Postal Code": 505,
      "Place Name": "Temba",
      "Latitude": -25.365,
      "Longitude": 28.2189
    },
    {
      "Postal Code": 506,
      "Place Name": "Temba",
      "Latitude": -25.365,
      "Longitude": 28.2189
    },
    {
      "Postal Code": 507,
      "Place Name": "Temba",
      "Latitude": -25.365,
      "Longitude": 28.2189
    },
    {
      "Postal Code": 508,
      "Place Name": "Temba",
      "Latitude": -25.365,
      "Longitude": 28.2189
    },
    {
      "Postal Code": 510,
      "Place Name": "Nylstroom",
      "Latitude": -24.7,
      "Longitude": 28.4
    },
    {
      "Postal Code": 512,
      "Place Name": "Nylstroom",
      "Latitude": -24.7,
      "Longitude": 28.4
    },
    {
      "Postal Code": 513,
      "Place Name": "Nylstroom",
      "Latitude": -24.7,
      "Longitude": 28.4
    },
    {
      "Postal Code": 514,
      "Place Name": "Nylstroom",
      "Latitude": -24.7,
      "Longitude": 28.4
    },
    {
      "Postal Code": 515,
      "Place Name": "Nylstroom",
      "Latitude": -24.7,
      "Longitude": 28.4
    },
    {
      "Postal Code": 516,
      "Place Name": "Nylstroom",
      "Latitude": -24.7,
      "Longitude": 28.4
    },
    {
      "Postal Code": 517,
      "Place Name": "Nylstroom",
      "Latitude": -24.7,
      "Longitude": 28.4
    },
    {
      "Postal Code": 531,
      "Place Name": "Ellisras",
      "Latitude": -23.6667,
      "Longitude": 27.7333
    },
    {
      "Postal Code": 532,
      "Place Name": "Ellisras",
      "Latitude": -23.6667,
      "Longitude": 27.7333
    },
    {
      "Postal Code": 533,
      "Place Name": "Ellisras",
      "Latitude": -23.6667,
      "Longitude": 27.7333
    },
    {
      "Postal Code": 534,
      "Place Name": "Ellisras",
      "Latitude": -23.6667,
      "Longitude": 27.7333
    },
    {
      "Postal Code": 536,
      "Place Name": "Ellisras",
      "Latitude": -23.6667,
      "Longitude": 27.7333
    },
    {
      "Postal Code": 537,
      "Place Name": "Vaalwater",
      "Latitude": -24.1667,
      "Longitude": 28.1
    },
    {
      "Postal Code": 539,
      "Place Name": "Nylstroom",
      "Latitude": -24.7,
      "Longitude": 28.4
    },
    {
      "Postal Code": 541,
      "Place Name": "Potgietersrus",
      "Latitude": -24.1833,
      "Longitude": 29.0167
    },
    {
      "Postal Code": 555,
      "Place Name": "Ellisras",
      "Latitude": -23.6667,
      "Longitude": 27.7333
    },
    {
      "Postal Code": 556,
      "Place Name": "Ellisras",
      "Latitude": -23.6667,
      "Longitude": 27.7333
    },
    {
      "Postal Code": 557,
      "Place Name": "Ellisras",
      "Latitude": -23.6667,
      "Longitude": 27.7333
    },
    {
      "Postal Code": 560,
      "Place Name": "Naboomspruit",
      "Latitude": -24.5167,
      "Longitude": 28.7167
    },
    {
      "Postal Code": 561,
      "Place Name": "Naboomspruit",
      "Latitude": -24.5167,
      "Longitude": 28.7167
    },
    {
      "Postal Code": 562,
      "Place Name": "Naboomspruit",
      "Latitude": -24.5167,
      "Longitude": 28.7167
    },
    {
      "Postal Code": 564,
      "Place Name": "Naboomspruit",
      "Latitude": -24.5167,
      "Longitude": 28.7167
    },
    {
      "Postal Code": 580,
      "Place Name": "Roedtan",
      "Latitude": -24.5777,
      "Longitude": 28.202
    },
    {
      "Postal Code": 601,
      "Place Name": "Potgietersrus",
      "Latitude": -24.1833,
      "Longitude": 29.0167
    },
    {
      "Postal Code": 602,
      "Place Name": "Potgietersrus",
      "Latitude": -24.1833,
      "Longitude": 29.0167
    },
    {
      "Postal Code": 603,
      "Place Name": "Potgietersrus",
      "Latitude": -24.1833,
      "Longitude": 29.0167
    },
    {
      "Postal Code": 604,
      "Place Name": "Potgietersrus",
      "Latitude": -24.1833,
      "Longitude": 29.0167
    },
    {
      "Postal Code": 605,
      "Place Name": "Potgietersrus",
      "Latitude": -24.1833,
      "Longitude": 29.0167
    },
    {
      "Postal Code": 606,
      "Place Name": "Potgietersrus",
      "Latitude": -24.1833,
      "Longitude": 29.0167
    },
    {
      "Postal Code": 607,
      "Place Name": "Potgietersrus",
      "Latitude": -24.1833,
      "Longitude": 29.0167
    },
    {
      "Postal Code": 608,
      "Place Name": "Potgietersrus",
      "Latitude": -24.1833,
      "Longitude": 29.0167
    },
    {
      "Postal Code": 609,
      "Place Name": "Potgietersrus",
      "Latitude": -24.1833,
      "Longitude": 29.0167
    },
    {
      "Postal Code": 610,
      "Place Name": "Potgietersrus",
      "Latitude": -24.1833,
      "Longitude": 29.0167
    },
    {
      "Postal Code": 611,
      "Place Name": "Potgietersrus",
      "Latitude": -24.1833,
      "Longitude": 29.0167
    },
    {
      "Postal Code": 612,
      "Place Name": "Potgietersrus",
      "Latitude": -24.1833,
      "Longitude": 29.0167
    },
    {
      "Postal Code": 613,
      "Place Name": "Potgietersrus",
      "Latitude": -24.1833,
      "Longitude": 29.0167
    },
    {
      "Postal Code": 615,
      "Place Name": "Potgietersrus",
      "Latitude": -24.1833,
      "Longitude": 29.0167
    },
    {
      "Postal Code": 616,
      "Place Name": "Nkwe",
      "Latitude": -23.4,
      "Longitude": 28.75
    },
    {
      "Postal Code": 617,
      "Place Name": "Rebone",
      "Latitude": -24.1833,
      "Longitude": 29.0167
    },
    {
      "Postal Code": 618,
      "Place Name": "Potgietersrus",
      "Latitude": -24.1833,
      "Longitude": 29.0167
    },
    {
      "Postal Code": 619,
      "Place Name": "Potgietersrus",
      "Latitude": -24.1833,
      "Longitude": 29.0167
    },
    {
      "Postal Code": 620,
      "Place Name": "Potgietersrus",
      "Latitude": -24.1833,
      "Longitude": 29.0167
    },
    {
      "Postal Code": 621,
      "Place Name": "Potgietersrus",
      "Latitude": -24.1833,
      "Longitude": 29.0167
    },
    {
      "Postal Code": 622,
      "Place Name": "Potgietersrus",
      "Latitude": -24.1833,
      "Longitude": 29.0167
    },
    {
      "Postal Code": 623,
      "Place Name": "Potgietersrus",
      "Latitude": -24.1833,
      "Longitude": 29.0167
    },
    {
      "Postal Code": 624,
      "Place Name": "Potgietersrus",
      "Latitude": -24.1833,
      "Longitude": 29.0167
    },
    {
      "Postal Code": 626,
      "Place Name": "Mahwelereng",
      "Latitude": -24.15,
      "Longitude": 28.9833
    },
    {
      "Postal Code": 629,
      "Place Name": "Potgietersrus",
      "Latitude": -24.1833,
      "Longitude": 29.0167
    },
    {
      "Postal Code": 630,
      "Place Name": "Potgietersrus",
      "Latitude": -24.1833,
      "Longitude": 29.0167
    },
    {
      "Postal Code": 632,
      "Place Name": "Pietersburg",
      "Latitude": -24.1833,
      "Longitude": 29.0167
    },
    {
      "Postal Code": 633,
      "Place Name": "Potgietersrus",
      "Latitude": -24.1833,
      "Longitude": 29.0167
    },
    {
      "Postal Code": 634,
      "Place Name": "Potgietersrus",
      "Latitude": -24.1833,
      "Longitude": 29.0167
    },
    {
      "Postal Code": 635,
      "Place Name": "Potgietersrus",
      "Latitude": -24.1833,
      "Longitude": 29.0167
    },
    {
      "Postal Code": 636,
      "Place Name": "Potgietersrus",
      "Latitude": -24.1833,
      "Longitude": 29.0167
    },
    {
      "Postal Code": 637,
      "Place Name": "Potgietersrus",
      "Latitude": -24.1833,
      "Longitude": 29.0167
    },
    {
      "Postal Code": 638,
      "Place Name": "Potgietersrus",
      "Latitude": -24.1833,
      "Longitude": 29.0167
    },
    {
      "Postal Code": 639,
      "Place Name": "Rebone",
      "Latitude": -24.1833,
      "Longitude": 29.0167
    },
    {
      "Postal Code": 642,
      "Place Name": "Rebone",
      "Latitude": -24.1833,
      "Longitude": 29.0167
    },
    {
      "Postal Code": 643,
      "Place Name": "Potgieterus",
      "Latitude": -24.1833,
      "Longitude": 29.0167
    },
    {
      "Postal Code": 644,
      "Place Name": "Potgieterus",
      "Latitude": -24.1833,
      "Longitude": 29.0167
    },
    {
      "Postal Code": 645,
      "Place Name": "Potgietersrus",
      "Latitude": -24.1833,
      "Longitude": 29.0167
    },
    {
      "Postal Code": 646,
      "Place Name": "Potgieterus",
      "Latitude": -24.1833,
      "Longitude": 29.0167
    },
    {
      "Postal Code": 647,
      "Place Name": "Potgieterus",
      "Latitude": -24.1833,
      "Longitude": 29.0167
    },
    {
      "Postal Code": 648,
      "Place Name": "Potgietersrus",
      "Latitude": -24.1833,
      "Longitude": 29.0167
    },
    {
      "Postal Code": 649,
      "Place Name": "Potgietersrus",
      "Latitude": -24.1833,
      "Longitude": 29.0167
    },
    {
      "Postal Code": 650,
      "Place Name": "Potgieterus",
      "Latitude": -24.1833,
      "Longitude": 29.0167
    },
    {
      "Postal Code": 651,
      "Place Name": "Potgieterus",
      "Latitude": -24.1833,
      "Longitude": 29.0167
    },
    {
      "Postal Code": 652,
      "Place Name": "Potgietersrus",
      "Latitude": -24.1833,
      "Longitude": 29.0167
    },
    {
      "Postal Code": 654,
      "Place Name": "Potgietersrus",
      "Latitude": -24.1833,
      "Longitude": 29.0167
    },
    {
      "Postal Code": 656,
      "Place Name": "Potgietersrus",
      "Latitude": -24.1833,
      "Longitude": 29.0167
    },
    {
      "Postal Code": 657,
      "Place Name": "Potgietersrus",
      "Latitude": -24.1833,
      "Longitude": 29.0167
    },
    {
      "Postal Code": 658,
      "Place Name": "Potgietersrus",
      "Latitude": -24.1833,
      "Longitude": 29.0167
    },
    {
      "Postal Code": 659,
      "Place Name": "Potgietersrus",
      "Latitude": -24.1833,
      "Longitude": 29.0167
    },
    {
      "Postal Code": 690,
      "Place Name": "Potgietersrus",
      "Latitude": -24.1833,
      "Longitude": 29.0167
    },
    {
      "Postal Code": 699,
      "Place Name": "Pietersburg",
      "Latitude": -24.1618,
      "Longitude": 29.0088
    },
    {
      "Postal Code": 700,
      "Place Name": "Pietersburg",
      "Latitude": -23.7167,
      "Longitude": 29.3167
    },
    {
      "Postal Code": 701,
      "Place Name": "Pietersburg",
      "Latitude": -23.7167,
      "Longitude": 29.3167
    },
    {
      "Postal Code": 702,
      "Place Name": "Pietersburg",
      "Latitude": -23.7167,
      "Longitude": 29.3167
    },
    {
      "Postal Code": 703,
      "Place Name": "Pietersburg",
      "Latitude": -23.7167,
      "Longitude": 29.3167
    },
    {
      "Postal Code": 704,
      "Place Name": "Pietersburg",
      "Latitude": -23.7167,
      "Longitude": 29.3167
    },
    {
      "Postal Code": 705,
      "Place Name": "Ga-Maraba",
      "Latitude": -23.7167,
      "Longitude": 29.3167
    },
    {
      "Postal Code": 706,
      "Place Name": "Pietersburg",
      "Latitude": -23.7167,
      "Longitude": 29.3167
    },
    {
      "Postal Code": 707,
      "Place Name": "Pietersburg",
      "Latitude": -23.7167,
      "Longitude": 29.3167
    },
    {
      "Postal Code": 708,
      "Place Name": "Pietersburg",
      "Latitude": -23.7167,
      "Longitude": 29.3167
    },
    {
      "Postal Code": 709,
      "Place Name": "Pietersburg",
      "Latitude": -23.7167,
      "Longitude": 29.3167
    },
    {
      "Postal Code": 710,
      "Place Name": "Lonsdale",
      "Latitude": -23.6,
      "Longitude": 29.1667
    },
    {
      "Postal Code": 711,
      "Place Name": "Pietersburg",
      "Latitude": -23.3,
      "Longitude": 29.0792
    },
    {
      "Postal Code": 712,
      "Place Name": "Pietersburg",
      "Latitude": -23.3,
      "Longitude": 29.0792
    },
    {
      "Postal Code": 713,
      "Place Name": "Pietersburg",
      "Latitude": -23.3,
      "Longitude": 29.0792
    },
    {
      "Postal Code": 714,
      "Place Name": "Neandertal",
      "Latitude": -23.4833,
      "Longitude": 29.1833
    },
    {
      "Postal Code": 716,
      "Place Name": "Pietersburg",
      "Latitude": -23.3,
      "Longitude": 29.0792
    },
    {
      "Postal Code": 717,
      "Place Name": "Pietersburg",
      "Latitude": -23.3,
      "Longitude": 29.0792
    },
    {
      "Postal Code": 718,
      "Place Name": "Bochum",
      "Latitude": -23.2833,
      "Longitude": 29.1167
    },
    {
      "Postal Code": 719,
      "Place Name": "Pietersburg",
      "Latitude": -23.3,
      "Longitude": 29.0792
    },
    {
      "Postal Code": 720,
      "Place Name": "Pietersburg",
      "Latitude": -23.8667,
      "Longitude": 29.8056
    },
    {
      "Postal Code": 721,
      "Place Name": "Pietersburg",
      "Latitude": -23.7333,
      "Longitude": 29.7833
    },
    {
      "Postal Code": 722,
      "Place Name": "Pietersburg",
      "Latitude": -23.8667,
      "Longitude": 29.8056
    },
    {
      "Postal Code": 723,
      "Place Name": "Pietersburg",
      "Latitude": -23.8667,
      "Longitude": 29.8056
    },
    {
      "Postal Code": 724,
      "Place Name": "Pietersburg",
      "Latitude": -23.8667,
      "Longitude": 29.8056
    },
    {
      "Postal Code": 725,
      "Place Name": "Pietersburg",
      "Latitude": -23.8667,
      "Longitude": 29.8056
    },
    {
      "Postal Code": 726,
      "Place Name": "Pietersburg",
      "Latitude": -23.8667,
      "Longitude": 29.8056
    },
    {
      "Postal Code": 727,
      "Place Name": "Sovenga",
      "Latitude": -23.9333,
      "Longitude": 29.8167
    },
    {
      "Postal Code": 728,
      "Place Name": "Pietersburg",
      "Latitude": -23.9333,
      "Longitude": 29.8167
    },
    {
      "Postal Code": 729,
      "Place Name": "Lonsdale",
      "Latitude": -23.6,
      "Longitude": 29.1667
    },
    {
      "Postal Code": 730,
      "Place Name": "Pietersburg",
      "Latitude": -23.9667,
      "Longitude": 29.7
    },
    {
      "Postal Code": 731,
      "Place Name": "Pietersburg",
      "Latitude": -23.9667,
      "Longitude": 29.7
    },
    {
      "Postal Code": 732,
      "Place Name": "Mphogodiba",
      "Latitude": -23.9667,
      "Longitude": 29.7
    },
    {
      "Postal Code": 733,
      "Place Name": "Pietersburg",
      "Latitude": -23.9667,
      "Longitude": 29.7
    },
    {
      "Postal Code": 734,
      "Place Name": "Tholongwe",
      "Latitude": -23.9667,
      "Longitude": 29.7
    },
    {
      "Postal Code": 735,
      "Place Name": "Pietersburg",
      "Latitude": -23.9667,
      "Longitude": 29.7
    },
    {
      "Postal Code": 736,
      "Place Name": "Mphahlele",
      "Latitude": -23.9667,
      "Longitude": 29.7
    },
    {
      "Postal Code": 737,
      "Place Name": "Pietersburg",
      "Latitude": -23.9667,
      "Longitude": 29.7
    },
    {
      "Postal Code": 738,
      "Place Name": "Pietersburg",
      "Latitude": -23.9667,
      "Longitude": 29.7
    },
    {
      "Postal Code": 739,
      "Place Name": "Pietersburg",
      "Latitude": -23.9667,
      "Longitude": 29.7
    },
    {
      "Postal Code": 740,
      "Place Name": "Pietersburg",
      "Latitude": -23.95,
      "Longitude": 29.1333
    },
    {
      "Postal Code": 741,
      "Place Name": "Pietersburg",
      "Latitude": -23.95,
      "Longitude": 29.1333
    },
    {
      "Postal Code": 742,
      "Place Name": "Pietersburg",
      "Latitude": -23.95,
      "Longitude": 29.1333
    },
    {
      "Postal Code": 743,
      "Place Name": "Pietersburg",
      "Latitude": -23.95,
      "Longitude": 29.1333
    },
    {
      "Postal Code": 744,
      "Place Name": "Pietersburg",
      "Latitude": -23.95,
      "Longitude": 29.1333
    },
    {
      "Postal Code": 745,
      "Place Name": "Chuenespoort",
      "Latitude": -23.95,
      "Longitude": 29.1333
    },
    {
      "Postal Code": 746,
      "Place Name": "Bakone",
      "Latitude": -23.95,
      "Longitude": 29.1333
    },
    {
      "Postal Code": 747,
      "Place Name": "Pietersburg",
      "Latitude": -23.95,
      "Longitude": 29.1333
    },
    {
      "Postal Code": 748,
      "Place Name": "Juno",
      "Latitude": -23.95,
      "Longitude": 29.1333
    },
    {
      "Postal Code": 749,
      "Place Name": "Atok",
      "Latitude": -23.95,
      "Longitude": 29.1333
    },
    {
      "Postal Code": 750,
      "Place Name": "Pietersburg",
      "Latitude": -23.6774,
      "Longitude": 29.4869
    },
    {
      "Postal Code": 751,
      "Place Name": "Seshego",
      "Latitude": -23.85,
      "Longitude": 29.3833
    },
    {
      "Postal Code": 752,
      "Place Name": "Pietersburg",
      "Latitude": -23.6774,
      "Longitude": 29.4869
    },
    {
      "Postal Code": 753,
      "Place Name": "Manyama",
      "Latitude": -23.6774,
      "Longitude": 29.4869
    },
    {
      "Postal Code": 754,
      "Place Name": "Pietersburg",
      "Latitude": -23.6774,
      "Longitude": 29.4869
    },
    {
      "Postal Code": 755,
      "Place Name": "Pietersburg",
      "Latitude": -23.6774,
      "Longitude": 29.4869
    },
    {
      "Postal Code": 756,
      "Place Name": "Pietersburg",
      "Latitude": -23.6774,
      "Longitude": 29.4869
    },
    {
      "Postal Code": 757,
      "Place Name": "Bakone",
      "Latitude": -23.6774,
      "Longitude": 29.4869
    },
    {
      "Postal Code": 758,
      "Place Name": "Juno",
      "Latitude": -23.6774,
      "Longitude": 29.4869
    },
    {
      "Postal Code": 759,
      "Place Name": "Pietersburg",
      "Latitude": -23.6774,
      "Longitude": 29.4869
    },
    {
      "Postal Code": 760,
      "Place Name": "Pietersburg",
      "Latitude": -23.9333,
      "Longitude": 29.8167
    },
    {
      "Postal Code": 761,
      "Place Name": "Mphahlele",
      "Latitude": -23.9333,
      "Longitude": 29.8167
    },
    {
      "Postal Code": 762,
      "Place Name": "Mphahlele",
      "Latitude": -23.9333,
      "Longitude": 29.8167
    },
    {
      "Postal Code": 763,
      "Place Name": "Sovenga",
      "Latitude": -23.9333,
      "Longitude": 29.8167
    },
    {
      "Postal Code": 764,
      "Place Name": "Boyne",
      "Latitude": -23.9333,
      "Longitude": 29.8167
    },
    {
      "Postal Code": 765,
      "Place Name": "Pietersburg",
      "Latitude": -23.9333,
      "Longitude": 29.8167
    },
    {
      "Postal Code": 766,
      "Place Name": "Boyne",
      "Latitude": -23.9333,
      "Longitude": 29.8167
    },
    {
      "Postal Code": 767,
      "Place Name": "Lonsdale",
      "Latitude": -23.6,
      "Longitude": 29.1667
    },
    {
      "Postal Code": 768,
      "Place Name": "Pietersburg",
      "Latitude": -23.9333,
      "Longitude": 29.8167
    },
    {
      "Postal Code": 769,
      "Place Name": "Pietersburg",
      "Latitude": -23.9333,
      "Longitude": 29.8167
    },
    {
      "Postal Code": 770,
      "Place Name": "Pietersburg",
      "Latitude": -23.8833,
      "Longitude": 30.4
    },
    {
      "Postal Code": 771,
      "Place Name": "Letsitele",
      "Latitude": -23.8833,
      "Longitude": 30.4
    },
    {
      "Postal Code": 772,
      "Place Name": "Letsitele",
      "Latitude": -23.8833,
      "Longitude": 30.4
    },
    {
      "Postal Code": 773,
      "Place Name": "Pietersburg",
      "Latitude": -23.8833,
      "Longitude": 30.4
    },
    {
      "Postal Code": 774,
      "Place Name": "Pietersburg",
      "Latitude": -23.8833,
      "Longitude": 30.4
    },
    {
      "Postal Code": 775,
      "Place Name": "Pietersburg",
      "Latitude": -23.8833,
      "Longitude": 30.4
    },
    {
      "Postal Code": 776,
      "Place Name": "Pietersburg",
      "Latitude": -23.8833,
      "Longitude": 30.4
    },
    {
      "Postal Code": 778,
      "Place Name": "Superbia",
      "Latitude": -23.8833,
      "Longitude": 30.4
    },
    {
      "Postal Code": 779,
      "Place Name": "Superbia",
      "Latitude": -23.8833,
      "Longitude": 30.4
    },
    {
      "Postal Code": 780,
      "Place Name": "Pietersburg",
      "Latitude": -23.6167,
      "Longitude": 29.3583
    },
    {
      "Postal Code": 781,
      "Place Name": "Pietersburg",
      "Latitude": -23.6167,
      "Longitude": 29.3583
    },
    {
      "Postal Code": 782,
      "Place Name": "Pietersburg",
      "Latitude": -23.6167,
      "Longitude": 29.3583
    },
    {
      "Postal Code": 783,
      "Place Name": "Pietersburg",
      "Latitude": -23.6167,
      "Longitude": 29.3583
    },
    {
      "Postal Code": 784,
      "Place Name": "Seshego",
      "Latitude": -23.85,
      "Longitude": 29.3833
    },
    {
      "Postal Code": 785,
      "Place Name": "Mphahlele",
      "Latitude": -23.6167,
      "Longitude": 29.3583
    },
    {
      "Postal Code": 786,
      "Place Name": "Dendron",
      "Latitude": -23.3833,
      "Longitude": 29.3333
    },
    {
      "Postal Code": 787,
      "Place Name": "Pietersburg",
      "Latitude": -23.6167,
      "Longitude": 29.3583
    },
    {
      "Postal Code": 788,
      "Place Name": "Superbia",
      "Latitude": -23.6167,
      "Longitude": 29.3583
    },
    {
      "Postal Code": 789,
      "Place Name": "Pietersburg",
      "Latitude": -23.6167,
      "Longitude": 29.3583
    },
    {
      "Postal Code": 790,
      "Place Name": "Bochum",
      "Latitude": -23.2833,
      "Longitude": 29.1167
    },
    {
      "Postal Code": 791,
      "Place Name": "Pietersburg",
      "Latitude": -23.6774,
      "Longitude": 29.4869
    },
    {
      "Postal Code": 792,
      "Place Name": "Pietersburg",
      "Latitude": -23.6774,
      "Longitude": 29.4869
    },
    {
      "Postal Code": 793,
      "Place Name": "Pietersburg",
      "Latitude": -23.6774,
      "Longitude": 29.4869
    },
    {
      "Postal Code": 794,
      "Place Name": "Pietersburg",
      "Latitude": -23.6774,
      "Longitude": 29.4869
    },
    {
      "Postal Code": 795,
      "Place Name": "Seshego",
      "Latitude": -23.85,
      "Longitude": 29.3833
    },
    {
      "Postal Code": 796,
      "Place Name": "Pietersburg",
      "Latitude": -23.6774,
      "Longitude": 29.4869
    },
    {
      "Postal Code": 797,
      "Place Name": "Pietersburg",
      "Latitude": -23.6774,
      "Longitude": 29.4869
    },
    {
      "Postal Code": 798,
      "Place Name": "Pietersburg",
      "Latitude": -23.6774,
      "Longitude": 29.4869
    },
    {
      "Postal Code": 799,
      "Place Name": "Pietersburg",
      "Latitude": -23.6774,
      "Longitude": 29.4869
    },
    {
      "Postal Code": 800,
      "Place Name": "Pietersburg",
      "Latitude": -23.6861,
      "Longitude": 30.3367
    },
    {
      "Postal Code": 801,
      "Place Name": "Pietersburg",
      "Latitude": -23.6861,
      "Longitude": 30.3367
    },
    {
      "Postal Code": 802,
      "Place Name": "Pietersburg",
      "Latitude": -23.6861,
      "Longitude": 30.3367
    },
    {
      "Postal Code": 805,
      "Place Name": "Pietersburg",
      "Latitude": -23.6861,
      "Longitude": 30.3367
    },
    {
      "Postal Code": 806,
      "Place Name": "Pietersburg",
      "Latitude": -23.6861,
      "Longitude": 30.3367
    },
    {
      "Postal Code": 807,
      "Place Name": "Bochum",
      "Latitude": -23.2833,
      "Longitude": 29.1167
    },
    {
      "Postal Code": 808,
      "Place Name": "Pietersburg",
      "Latitude": -23.6861,
      "Longitude": 30.3367
    },
    {
      "Postal Code": 809,
      "Place Name": "Pietersburg",
      "Latitude": -23.6861,
      "Longitude": 30.3367
    },
    {
      "Postal Code": 810,
      "Place Name": "Soekmekaar",
      "Latitude": -23.4833,
      "Longitude": 29.9333
    },
    {
      "Postal Code": 811,
      "Place Name": "Pietersburg",
      "Latitude": -23.5444,
      "Longitude": 29.9389
    },
    {
      "Postal Code": 812,
      "Place Name": "Pietersburg",
      "Latitude": -23.45,
      "Longitude": 29.75
    },
    {
      "Postal Code": 813,
      "Place Name": "Pietersburg",
      "Latitude": -23.5444,
      "Longitude": 29.9389
    },
    {
      "Postal Code": 814,
      "Place Name": "Pietersburg",
      "Latitude": -23.5444,
      "Longitude": 29.9389
    },
    {
      "Postal Code": 815,
      "Place Name": "Duiwelskloof",
      "Latitude": -23.7,
      "Longitude": 30.1333
    },
    {
      "Postal Code": 816,
      "Place Name": "Malamulele",
      "Latitude": -23.5444,
      "Longitude": 29.9389
    },
    {
      "Postal Code": 818,
      "Place Name": "Pietersburg",
      "Latitude": -23.5444,
      "Longitude": 29.9389
    },
    {
      "Postal Code": 819,
      "Place Name": "Pietersburg",
      "Latitude": -23.5444,
      "Longitude": 29.9389
    },
    {
      "Postal Code": 820,
      "Place Name": "Pietersburg",
      "Latitude": -23.3167,
      "Longitude": 30.7167
    },
    {
      "Postal Code": 821,
      "Place Name": "Pietersburg",
      "Latitude": -23.3167,
      "Longitude": 30.7167
    },
    {
      "Postal Code": 822,
      "Place Name": "Pietersburg",
      "Latitude": -23.3167,
      "Longitude": 30.7167
    },
    {
      "Postal Code": 823,
      "Place Name": "Pietersburg",
      "Latitude": -23.3167,
      "Longitude": 30.7167
    },
    {
      "Postal Code": 824,
      "Place Name": "Pietersburg",
      "Latitude": -23.3167,
      "Longitude": 30.7167
    },
    {
      "Postal Code": 825,
      "Place Name": "Pietersburg",
      "Latitude": -23.3167,
      "Longitude": 30.7167
    },
    {
      "Postal Code": 826,
      "Place Name": "Giyani",
      "Latitude": -23.3167,
      "Longitude": 30.7167
    },
    {
      "Postal Code": 827,
      "Place Name": "Molototsi",
      "Latitude": -23.3167,
      "Longitude": 30.7167
    },
    {
      "Postal Code": 828,
      "Place Name": "Bochum",
      "Latitude": -23.2833,
      "Longitude": 29.1167
    },
    {
      "Postal Code": 829,
      "Place Name": "Giyani",
      "Latitude": -23.3167,
      "Longitude": 30.7167
    },
    {
      "Postal Code": 831,
      "Place Name": "Malamulele",
      "Latitude": -23.3167,
      "Longitude": 30.7167
    },
    {
      "Postal Code": 832,
      "Place Name": "Giyani",
      "Latitude": -23.3167,
      "Longitude": 30.7167
    },
    {
      "Postal Code": 833,
      "Place Name": "Malamulele",
      "Latitude": -23.3167,
      "Longitude": 30.7167
    },
    {
      "Postal Code": 834,
      "Place Name": "Giyani",
      "Latitude": -23.3167,
      "Longitude": 30.7167
    },
    {
      "Postal Code": 836,
      "Place Name": "Juno",
      "Latitude": -23.3167,
      "Longitude": 30.7167
    },
    {
      "Postal Code": 838,
      "Place Name": "Gakgapane",
      "Latitude": -23.3167,
      "Longitude": 30.7167
    },
    {
      "Postal Code": 839,
      "Place Name": "Giyani",
      "Latitude": -23.3167,
      "Longitude": 30.7167
    },
    {
      "Postal Code": 840,
      "Place Name": "Giyani",
      "Latitude": -23.3167,
      "Longitude": 30.7167
    },
    {
      "Postal Code": 841,
      "Place Name": "Giyani",
      "Latitude": -23.3167,
      "Longitude": 30.7167
    },
    {
      "Postal Code": 842,
      "Place Name": "Giyani",
      "Latitude": -23.3167,
      "Longitude": 30.7167
    },
    {
      "Postal Code": 843,
      "Place Name": "Giyani",
      "Latitude": -23.3167,
      "Longitude": 30.7167
    },
    {
      "Postal Code": 844,
      "Place Name": "Giyani",
      "Latitude": -23.3167,
      "Longitude": 30.7167
    },
    {
      "Postal Code": 845,
      "Place Name": "Juno",
      "Latitude": -23.3167,
      "Longitude": 30.7167
    },
    {
      "Postal Code": 846,
      "Place Name": "Giyani",
      "Latitude": -23.3167,
      "Longitude": 30.7167
    },
    {
      "Postal Code": 847,
      "Place Name": "Gakgapane",
      "Latitude": -23.3167,
      "Longitude": 30.7167
    },
    {
      "Postal Code": 848,
      "Place Name": "Pietersburg",
      "Latitude": -23.3167,
      "Longitude": 30.7167
    },
    {
      "Postal Code": 849,
      "Place Name": "Bochum",
      "Latitude": -23.2833,
      "Longitude": 29.1167
    },
    {
      "Postal Code": 850,
      "Place Name": "Tzaneen",
      "Latitude": -23.8333,
      "Longitude": 30.1667
    },
    {
      "Postal Code": 852,
      "Place Name": "Tzaneen",
      "Latitude": -23.8333,
      "Longitude": 30.1667
    },
    {
      "Postal Code": 854,
      "Place Name": "Tzaneen",
      "Latitude": -23.8333,
      "Longitude": 30.1667
    },
    {
      "Postal Code": 855,
      "Place Name": "Pietersburg",
      "Latitude": -23.8333,
      "Longitude": 30.1667
    },
    {
      "Postal Code": 857,
      "Place Name": "Tzaneen",
      "Latitude": -23.8333,
      "Longitude": 30.1667
    },
    {
      "Postal Code": 858,
      "Place Name": "Giyani",
      "Latitude": -23.3167,
      "Longitude": 30.7167
    },
    {
      "Postal Code": 859,
      "Place Name": "Tzaneen",
      "Latitude": -23.8333,
      "Longitude": 30.1667
    },
    {
      "Postal Code": 860,
      "Place Name": "Tzaneen",
      "Latitude": -23.8333,
      "Longitude": 30.1667
    },
    {
      "Postal Code": 861,
      "Place Name": "Tzaneen",
      "Latitude": -23.8333,
      "Longitude": 30.1667
    },
    {
      "Postal Code": 862,
      "Place Name": "Gakgapane",
      "Latitude": -23.8333,
      "Longitude": 30.1667
    },
    {
      "Postal Code": 863,
      "Place Name": "Tzaneen",
      "Latitude": -23.8333,
      "Longitude": 30.1667
    },
    {
      "Postal Code": 864,
      "Place Name": "Pietersburg",
      "Latitude": -23.8333,
      "Longitude": 30.1667
    },
    {
      "Postal Code": 865,
      "Place Name": "Pietersburg",
      "Latitude": -23.8333,
      "Longitude": 30.1667
    },
    {
      "Postal Code": 866,
      "Place Name": "Pietersburg",
      "Latitude": -23.8333,
      "Longitude": 30.1667
    },
    {
      "Postal Code": 867,
      "Place Name": "Pietersburg",
      "Latitude": -23.8333,
      "Longitude": 30.1667
    },
    {
      "Postal Code": 868,
      "Place Name": "Tzaneen",
      "Latitude": -23.8333,
      "Longitude": 30.1667
    },
    {
      "Postal Code": 870,
      "Place Name": "Letaba",
      "Latitude": -23.9,
      "Longitude": 30.0667
    },
    {
      "Postal Code": 871,
      "Place Name": "Tzaneen",
      "Latitude": -23.8333,
      "Longitude": 30.1667
    },
    {
      "Postal Code": 872,
      "Place Name": "Tzaneen",
      "Latitude": -23.8333,
      "Longitude": 30.1667
    },
    {
      "Postal Code": 873,
      "Place Name": "Shiluvane",
      "Latitude": -24.0333,
      "Longitude": 30.2667
    },
    {
      "Postal Code": 875,
      "Place Name": "Tzaneen",
      "Latitude": -23.8333,
      "Longitude": 30.1667
    },
    {
      "Postal Code": 876,
      "Place Name": "Tzaneen",
      "Latitude": -23.8333,
      "Longitude": 30.1667
    },
    {
      "Postal Code": 877,
      "Place Name": "Letaba",
      "Latitude": -23.9,
      "Longitude": 30.0667
    },
    {
      "Postal Code": 878,
      "Place Name": "Letaba",
      "Latitude": -23.9,
      "Longitude": 30.0667
    },
    {
      "Postal Code": 881,
      "Place Name": "Pietersburg",
      "Latitude": -23.8833,
      "Longitude": 30.4
    },
    {
      "Postal Code": 883,
      "Place Name": "Pietersburg",
      "Latitude": -23.8833,
      "Longitude": 30.4
    },
    {
      "Postal Code": 884,
      "Place Name": "Pietersburg",
      "Latitude": -23.8833,
      "Longitude": 30.4
    },
    {
      "Postal Code": 885,
      "Place Name": "Letsitele",
      "Latitude": -23.8833,
      "Longitude": 30.4
    },
    {
      "Postal Code": 886,
      "Place Name": "Letsitele",
      "Latitude": -23.8833,
      "Longitude": 30.4
    },
    {
      "Postal Code": 889,
      "Place Name": "Pietersburg",
      "Latitude": -23.8833,
      "Longitude": 30.4
    },
    {
      "Postal Code": 890,
      "Place Name": "Letsitele",
      "Latitude": -23.8833,
      "Longitude": 30.4
    },
    {
      "Postal Code": 891,
      "Place Name": "Trichardtsdal",
      "Latitude": -24.1667,
      "Longitude": 30.4
    },
    {
      "Postal Code": 893,
      "Place Name": "Trichardtsdal",
      "Latitude": -24.1667,
      "Longitude": 30.4
    },
    {
      "Postal Code": 894,
      "Place Name": "Pietersburg",
      "Latitude": -24.0722,
      "Longitude": 30.4
    },
    {
      "Postal Code": 896,
      "Place Name": "Trichardtsdal",
      "Latitude": -24.1667,
      "Longitude": 30.4
    },
    {
      "Postal Code": 897,
      "Place Name": "Gakgapane",
      "Latitude": -24.0722,
      "Longitude": 30.4
    },
    {
      "Postal Code": 898,
      "Place Name": "Pietersburg",
      "Latitude": -24.0722,
      "Longitude": 30.4
    },
    {
      "Postal Code": 899,
      "Place Name": "Pietersburg",
      "Latitude": -24.0722,
      "Longitude": 30.4
    },
    {
      "Postal Code": 900,
      "Place Name": "Messina",
      "Latitude": -22.35,
      "Longitude": 30.05
    },
    {
      "Postal Code": 901,
      "Place Name": "Louis Trichardt",
      "Latitude": -23.05,
      "Longitude": 29.9
    },
    {
      "Postal Code": 903,
      "Place Name": "Pietersburg",
      "Latitude": -22.7833,
      "Longitude": 30.1389
    },
    {
      "Postal Code": 905,
      "Place Name": "Louis Trichardt",
      "Latitude": -23.05,
      "Longitude": 29.9
    },
    {
      "Postal Code": 906,
      "Place Name": "Sibasa",
      "Latitude": -22.95,
      "Longitude": 30.4667
    },
    {
      "Postal Code": 907,
      "Place Name": "Sibasa",
      "Latitude": -22.95,
      "Longitude": 30.4667
    },
    {
      "Postal Code": 909,
      "Place Name": "Louis Trichardt",
      "Latitude": -23.05,
      "Longitude": 29.9
    },
    {
      "Postal Code": 910,
      "Place Name": "Pietersburg",
      "Latitude": -23.0221,
      "Longitude": 30.336
    },
    {
      "Postal Code": 912,
      "Place Name": "Pietersburg",
      "Latitude": -23.0221,
      "Longitude": 30.336
    },
    {
      "Postal Code": 913,
      "Place Name": "Pietersburg",
      "Latitude": -23.0221,
      "Longitude": 30.336
    },
    {
      "Postal Code": 914,
      "Place Name": "Pietersburg",
      "Latitude": -23.0221,
      "Longitude": 30.336
    },
    {
      "Postal Code": 915,
      "Place Name": "Giyani",
      "Latitude": -23.3167,
      "Longitude": 30.7167
    },
    {
      "Postal Code": 916,
      "Place Name": "Juno",
      "Latitude": -23.0221,
      "Longitude": 30.336
    },
    {
      "Postal Code": 917,
      "Place Name": "Louis Trichardt",
      "Latitude": -23.05,
      "Longitude": 29.9
    },
    {
      "Postal Code": 920,
      "Place Name": "Louis Trichardt",
      "Latitude": -23.05,
      "Longitude": 29.9
    },
    {
      "Postal Code": 921,
      "Place Name": "Louis Trichardt",
      "Latitude": -23.05,
      "Longitude": 29.9
    },
    {
      "Postal Code": 922,
      "Place Name": "Louis Trichardt",
      "Latitude": -23.05,
      "Longitude": 29.9
    },
    {
      "Postal Code": 923,
      "Place Name": "Louis Trichardt",
      "Latitude": -23.05,
      "Longitude": 29.9
    },
    {
      "Postal Code": 924,
      "Place Name": "Louis Trichardt",
      "Latitude": -23.05,
      "Longitude": 29.9
    },
    {
      "Postal Code": 925,
      "Place Name": "Louis Trichardt",
      "Latitude": -23.05,
      "Longitude": 29.9
    },
    {
      "Postal Code": 926,
      "Place Name": "Sibasa",
      "Latitude": -22.95,
      "Longitude": 30.4667
    },
    {
      "Postal Code": 927,
      "Place Name": "Malamulele",
      "Latitude": -23.05,
      "Longitude": 29.9
    },
    {
      "Postal Code": 928,
      "Place Name": "Malamulele",
      "Latitude": -23.05,
      "Longitude": 29.9
    },
    {
      "Postal Code": 929,
      "Place Name": "Thohoyandou",
      "Latitude": -22.95,
      "Longitude": 30.4833
    },
    {
      "Postal Code": 930,
      "Place Name": "Giyani",
      "Latitude": -23.3167,
      "Longitude": 30.7167
    },
    {
      "Postal Code": 931,
      "Place Name": "Giyani",
      "Latitude": -23.3167,
      "Longitude": 30.7167
    },
    {
      "Postal Code": 932,
      "Place Name": "Giyani",
      "Latitude": -23.3167,
      "Longitude": 30.7167
    },
    {
      "Postal Code": 933,
      "Place Name": "Giyani",
      "Latitude": -23.3167,
      "Longitude": 30.7167
    },
    {
      "Postal Code": 934,
      "Place Name": "Louis Trichardt",
      "Latitude": -23.05,
      "Longitude": 29.9
    },
    {
      "Postal Code": 935,
      "Place Name": "Louis Trichardt",
      "Latitude": -23.05,
      "Longitude": 29.9
    },
    {
      "Postal Code": 937,
      "Place Name": "Louis Trichardt",
      "Latitude": -23.05,
      "Longitude": 29.9
    },
    {
      "Postal Code": 939,
      "Place Name": "Louis Trichardt",
      "Latitude": -23.05,
      "Longitude": 29.9
    },
    {
      "Postal Code": 940,
      "Place Name": "Louis Trichardt",
      "Latitude": -23.05,
      "Longitude": 29.9
    },
    {
      "Postal Code": 941,
      "Place Name": "Giyani",
      "Latitude": -23.3167,
      "Longitude": 30.7167
    },
    {
      "Postal Code": 942,
      "Place Name": "Louis Trichardt",
      "Latitude": -23.05,
      "Longitude": 29.9
    },
    {
      "Postal Code": 943,
      "Place Name": "Louis Trichardt",
      "Latitude": -23.05,
      "Longitude": 29.9
    },
    {
      "Postal Code": 944,
      "Place Name": "Giyani",
      "Latitude": -23.3167,
      "Longitude": 30.7167
    },
    {
      "Postal Code": 948,
      "Place Name": "Munzhedzi",
      "Latitude": -23.05,
      "Longitude": 29.9
    },
    {
      "Postal Code": 949,
      "Place Name": "Louis Trichardt",
      "Latitude": -23.05,
      "Longitude": 29.9
    },
    {
      "Postal Code": 950,
      "Place Name": "Pietersburg",
      "Latitude": -22.8167,
      "Longitude": 30.5083
    },
    {
      "Postal Code": 952,
      "Place Name": "Thohoyandou",
      "Latitude": -22.95,
      "Longitude": 30.4833
    },
    {
      "Postal Code": 953,
      "Place Name": "Malamulele",
      "Latitude": -22.8167,
      "Longitude": 30.5083
    },
    {
      "Postal Code": 954,
      "Place Name": "Louis Trichardt",
      "Latitude": -23.05,
      "Longitude": 29.9
    },
    {
      "Postal Code": 955,
      "Place Name": "Sibasa",
      "Latitude": -22.95,
      "Longitude": 30.4667
    },
    {
      "Postal Code": 956,
      "Place Name": "Mutale",
      "Latitude": -22.4833,
      "Longitude": 30.9167
    },
    {
      "Postal Code": 957,
      "Place Name": "Louis Trichardt",
      "Latitude": -23.05,
      "Longitude": 29.9
    },
    {
      "Postal Code": 959,
      "Place Name": "Thohoyandou",
      "Latitude": -22.95,
      "Longitude": 30.4833
    },
    {
      "Postal Code": 960,
      "Place Name": "Louis Trichardt",
      "Latitude": -23.05,
      "Longitude": 29.9
    },
    {
      "Postal Code": 964,
      "Place Name": "Pietersburg",
      "Latitude": -22.95,
      "Longitude": 30.4667
    },
    {
      "Postal Code": 968,
      "Place Name": "Sibasa",
      "Latitude": -22.95,
      "Longitude": 30.4667
    },
    {
      "Postal Code": 969,
      "Place Name": "Sibasa",
      "Latitude": -22.95,
      "Longitude": 30.4667
    },
    {
      "Postal Code": 970,
      "Place Name": "Sibasa",
      "Latitude": -22.95,
      "Longitude": 30.4667
    },
    {
      "Postal Code": 971,
      "Place Name": "Sibasa",
      "Latitude": -22.95,
      "Longitude": 30.4667
    },
    {
      "Postal Code": 972,
      "Place Name": "Sibasa",
      "Latitude": -22.95,
      "Longitude": 30.4667
    },
    {
      "Postal Code": 973,
      "Place Name": "Sibasa",
      "Latitude": -22.95,
      "Longitude": 30.4667
    },
    {
      "Postal Code": 974,
      "Place Name": "Sibasa",
      "Latitude": -22.95,
      "Longitude": 30.4667
    },
    {
      "Postal Code": 975,
      "Place Name": "Sibasa",
      "Latitude": -22.95,
      "Longitude": 30.4667
    },
    {
      "Postal Code": 976,
      "Place Name": "Muthathi",
      "Latitude": -22.95,
      "Longitude": 30.4667
    },
    {
      "Postal Code": 977,
      "Place Name": "Sibasa",
      "Latitude": -22.95,
      "Longitude": 30.4667
    },
    {
      "Postal Code": 979,
      "Place Name": "Sibasa",
      "Latitude": -22.95,
      "Longitude": 30.4667
    },
    {
      "Postal Code": 980,
      "Place Name": "Sibasa",
      "Latitude": -22.95,
      "Longitude": 30.4667
    },
    {
      "Postal Code": 981,
      "Place Name": "Malamulele",
      "Latitude": -23.2119,
      "Longitude": 30.6452
    },
    {
      "Postal Code": 983,
      "Place Name": "Giyani",
      "Latitude": -23.3167,
      "Longitude": 30.7167
    },
    {
      "Postal Code": 984,
      "Place Name": "Giyani",
      "Latitude": -23.3167,
      "Longitude": 30.7167
    },
    {
      "Postal Code": 985,
      "Place Name": "Giyani",
      "Latitude": -23.3167,
      "Longitude": 30.7167
    },
    {
      "Postal Code": 986,
      "Place Name": "Giyani",
      "Latitude": -23.3167,
      "Longitude": 30.7167
    },
    {
      "Postal Code": 987,
      "Place Name": "Giyani",
      "Latitude": -23.3167,
      "Longitude": 30.7167
    },
    {
      "Postal Code": 988,
      "Place Name": "Sibasa",
      "Latitude": -22.95,
      "Longitude": 30.4667
    },
    {
      "Postal Code": 989,
      "Place Name": "Sibasa",
      "Latitude": -22.95,
      "Longitude": 30.4667
    },
    {
      "Postal Code": 990,
      "Place Name": "Sibasa",
      "Latitude": -22.95,
      "Longitude": 30.4667
    },
    {
      "Postal Code": 992,
      "Place Name": "Mungomani",
      "Latitude": -22.95,
      "Longitude": 30.4667
    },
    {
      "Postal Code": 993,
      "Place Name": "Sibasa",
      "Latitude": -22.95,
      "Longitude": 30.4667
    },
    {
      "Postal Code": 994,
      "Place Name": "Sibasa",
      "Latitude": -22.95,
      "Longitude": 30.4667
    },
    {
      "Postal Code": 995,
      "Place Name": "Sibasa",
      "Latitude": -22.95,
      "Longitude": 30.4667
    },
    {
      "Postal Code": 996,
      "Place Name": "Sibasa",
      "Latitude": -22.95,
      "Longitude": 30.4667
    },
    {
      "Postal Code": 997,
      "Place Name": "Malamulele",
      "Latitude": -22.95,
      "Longitude": 30.4667
    },
    {
      "Postal Code": 998,
      "Place Name": "Malamulele",
      "Latitude": -22.95,
      "Longitude": 30.4667
    },
    {
      "Postal Code": 999,
      "Place Name": "Malamulele",
      "Latitude": -22.95,
      "Longitude": 30.4667
    },
    {
      "Postal Code": 1002,
      "Place Name": "Cullinan",
      "Latitude": -25.6756,
      "Longitude": 28.5222
    },
    {
      "Postal Code": 1003,
      "Place Name": "Cullinan",
      "Latitude": -25.6756,
      "Longitude": 28.5222
    },
    {
      "Postal Code": 1004,
      "Place Name": "Cullinan",
      "Latitude": -25.6756,
      "Longitude": 28.5222
    },
    {
      "Postal Code": 1005,
      "Place Name": "Cullinan",
      "Latitude": -25.6756,
      "Longitude": 28.5222
    },
    {
      "Postal Code": 1007,
      "Place Name": "Malamulele",
      "Latitude": -25.6756,
      "Longitude": 28.5222
    },
    {
      "Postal Code": 1008,
      "Place Name": "Malamulele",
      "Latitude": -25.6756,
      "Longitude": 28.5222
    },
    {
      "Postal Code": 1020,
      "Place Name": "Bronkhorstspruit",
      "Latitude": -25.8083,
      "Longitude": 28.7406
    },
    {
      "Postal Code": 1021,
      "Place Name": "Bronkhorstspruit",
      "Latitude": -25.8083,
      "Longitude": 28.7406
    },
    {
      "Postal Code": 1022,
      "Place Name": "Bronkhorstspruit",
      "Latitude": -25.8083,
      "Longitude": 28.7406
    },
    {
      "Postal Code": 1023,
      "Place Name": "Kwamhlanga",
      "Latitude": -25.4283,
      "Longitude": 28.7083
    },
    {
      "Postal Code": 1024,
      "Place Name": "Bronkhorstspruit",
      "Latitude": -25.8083,
      "Longitude": 28.7406
    },
    {
      "Postal Code": 1025,
      "Place Name": "Bronkhorstspruit",
      "Latitude": -25.8083,
      "Longitude": 28.7406
    },
    {
      "Postal Code": 1026,
      "Place Name": "Bronkhorstspruit",
      "Latitude": -25.8083,
      "Longitude": 28.7406
    },
    {
      "Postal Code": 1027,
      "Place Name": "Bronkhorstspruit",
      "Latitude": -25.8083,
      "Longitude": 28.7406
    },
    {
      "Postal Code": 1028,
      "Place Name": "Bronkhorstspruit",
      "Latitude": -25.8083,
      "Longitude": 28.7406
    },
    {
      "Postal Code": 1030,
      "Place Name": "Groblersdal",
      "Latitude": -25.15,
      "Longitude": 29.3833
    },
    {
      "Postal Code": 1032,
      "Place Name": "Witbank",
      "Latitude": -25.8667,
      "Longitude": 29.2333
    },
    {
      "Postal Code": 1033,
      "Place Name": "Coalville",
      "Latitude": -26.0333,
      "Longitude": 29.1667
    },
    {
      "Postal Code": 1034,
      "Place Name": "Witbank",
      "Latitude": -25.8667,
      "Longitude": 29.2333
    },
    {
      "Postal Code": 1035,
      "Place Name": "Witbank",
      "Latitude": -25.8667,
      "Longitude": 29.2333
    },
    {
      "Postal Code": 1036,
      "Place Name": "Witbank",
      "Latitude": -25.8667,
      "Longitude": 29.2333
    },
    {
      "Postal Code": 1037,
      "Place Name": "Witbank",
      "Latitude": -25.8667,
      "Longitude": 29.2333
    },
    {
      "Postal Code": 1038,
      "Place Name": "Witbank",
      "Latitude": -25.8667,
      "Longitude": 29.2333
    },
    {
      "Postal Code": 1039,
      "Place Name": "Witbank",
      "Latitude": -25.8667,
      "Longitude": 29.2333
    },
    {
      "Postal Code": 1040,
      "Place Name": "Witbank",
      "Latitude": -25.8667,
      "Longitude": 29.2333
    },
    {
      "Postal Code": 1042,
      "Place Name": "Witbank",
      "Latitude": -25.8667,
      "Longitude": 29.2333
    },
    {
      "Postal Code": 1043,
      "Place Name": "Witbank",
      "Latitude": -25.8667,
      "Longitude": 29.2333
    },
    {
      "Postal Code": 1044,
      "Place Name": "Witbank",
      "Latitude": -25.8667,
      "Longitude": 29.2333
    },
    {
      "Postal Code": 1045,
      "Place Name": "Witbank",
      "Latitude": -25.8667,
      "Longitude": 29.2333
    },
    {
      "Postal Code": 1046,
      "Place Name": "Witbank",
      "Latitude": -25.8667,
      "Longitude": 29.2333
    },
    {
      "Postal Code": 1047,
      "Place Name": "Witbank",
      "Latitude": -25.8667,
      "Longitude": 29.2333
    },
    {
      "Postal Code": 1048,
      "Place Name": "Witbank",
      "Latitude": -25.8667,
      "Longitude": 29.2333
    },
    {
      "Postal Code": 1049,
      "Place Name": "Witbank",
      "Latitude": -25.8667,
      "Longitude": 29.2333
    },
    {
      "Postal Code": 1050,
      "Place Name": "Mpumalanga",
      "Latitude": -30.05,
      "Longitude": 26.6167
    },
    {
      "Postal Code": 1051,
      "Place Name": "Middelburg",
      "Latitude": -26.2333,
      "Longitude": 28.8
    },
    {
      "Postal Code": 1052,
      "Place Name": "Middelburg",
      "Latitude": -26.2333,
      "Longitude": 28.8
    },
    {
      "Postal Code": 1053,
      "Place Name": "Middelburg",
      "Latitude": -26.2333,
      "Longitude": 28.8
    },
    {
      "Postal Code": 1054,
      "Place Name": "Middelburg",
      "Latitude": -26.2333,
      "Longitude": 28.8
    },
    {
      "Postal Code": 1055,
      "Place Name": "Mpumalanga",
      "Latitude": -26.2333,
      "Longitude": 28.8
    },
    {
      "Postal Code": 1056,
      "Place Name": "Middelburg",
      "Latitude": -26.2333,
      "Longitude": 28.8
    },
    {
      "Postal Code": 1057,
      "Place Name": "Nebo",
      "Latitude": -24.9,
      "Longitude": 29.7667
    },
    {
      "Postal Code": 1058,
      "Place Name": "Sekhukhune",
      "Latitude": -26.3611,
      "Longitude": 28.7722
    },
    {
      "Postal Code": 1059,
      "Place Name": "Witbank",
      "Latitude": -24.9,
      "Longitude": 29.7667
    },
    {
      "Postal Code": 1060,
      "Place Name": "Groblersdal",
      "Latitude": -25.15,
      "Longitude": 29.3833
    },
    {
      "Postal Code": 1061,
      "Place Name": "Groblersdal",
      "Latitude": -25.15,
      "Longitude": 29.3833
    },
    {
      "Postal Code": 1062,
      "Place Name": "Marble Hall",
      "Latitude": -24.9667,
      "Longitude": 29.3
    },
    {
      "Postal Code": 1063,
      "Place Name": "Sekhukhune",
      "Latitude": -25.625,
      "Longitude": 29.4458
    },
    {
      "Postal Code": 1064,
      "Place Name": "Sekhukhune",
      "Latitude": -25.625,
      "Longitude": 29.4458
    },
    {
      "Postal Code": 1065,
      "Place Name": "Middelburg",
      "Latitude": -25.7833,
      "Longitude": 29.4667
    },
    {
      "Postal Code": 1066,
      "Place Name": "Middelburg",
      "Latitude": -25.7833,
      "Longitude": 29.4667
    },
    {
      "Postal Code": 1068,
      "Place Name": "Middelburg",
      "Latitude": -25.7833,
      "Longitude": 29.4667
    },
    {
      "Postal Code": 1069,
      "Place Name": "Middelburg",
      "Latitude": -25.7833,
      "Longitude": 29.4667
    },
    {
      "Postal Code": 1070,
      "Place Name": "Middelburg",
      "Latitude": -25.7833,
      "Longitude": 29.4667
    },
    {
      "Postal Code": 1071,
      "Place Name": "Middelburg",
      "Latitude": -25.7833,
      "Longitude": 29.4667
    },
    {
      "Postal Code": 1072,
      "Place Name": "Witbank",
      "Latitude": -25.8667,
      "Longitude": 29.2333
    },
    {
      "Postal Code": 1073,
      "Place Name": "Witbank",
      "Latitude": -25.8667,
      "Longitude": 29.2333
    },
    {
      "Postal Code": 1074,
      "Place Name": "Witbank",
      "Latitude": -25.8667,
      "Longitude": 29.2333
    },
    {
      "Postal Code": 1075,
      "Place Name": "Witbank",
      "Latitude": -25.8667,
      "Longitude": 29.2333
    },
    {
      "Postal Code": 1076,
      "Place Name": "Witbank",
      "Latitude": -25.8667,
      "Longitude": 29.2333
    },
    {
      "Postal Code": 1077,
      "Place Name": "Witbank",
      "Latitude": -25.8667,
      "Longitude": 29.2333
    },
    {
      "Postal Code": 1078,
      "Place Name": "Mpudulle",
      "Latitude": -25.0167,
      "Longitude": 29.7333
    },
    {
      "Postal Code": 1079,
      "Place Name": "Middelburg",
      "Latitude": -25.7833,
      "Longitude": 29.4667
    },
    {
      "Postal Code": 1080,
      "Place Name": "Witbank",
      "Latitude": -25.8667,
      "Longitude": 29.2333
    },
    {
      "Postal Code": 1081,
      "Place Name": "Witbank",
      "Latitude": -25.8667,
      "Longitude": 29.2333
    },
    {
      "Postal Code": 1082,
      "Place Name": "Witbank",
      "Latitude": -25.8667,
      "Longitude": 29.2333
    },
    {
      "Postal Code": 1085,
      "Place Name": "Burgersfort",
      "Latitude": -24.6667,
      "Longitude": 30.3333
    },
    {
      "Postal Code": 1090,
      "Place Name": "Witbank",
      "Latitude": -25.8667,
      "Longitude": 29.2333
    },
    {
      "Postal Code": 1097,
      "Place Name": "Witbank",
      "Latitude": -25.8667,
      "Longitude": 29.2333
    },
    {
      "Postal Code": 1098,
      "Place Name": "Kwazamokuhle",
      "Latitude": -26.15,
      "Longitude": 29.7167
    },
    {
      "Postal Code": 1100,
      "Place Name": "Belfast",
      "Latitude": -25.6833,
      "Longitude": 30.0333
    },
    {
      "Postal Code": 1101,
      "Place Name": "Belfast",
      "Latitude": -25.6833,
      "Longitude": 30.0333
    },
    {
      "Postal Code": 1102,
      "Place Name": "Belfast",
      "Latitude": -25.6833,
      "Longitude": 30.0333
    },
    {
      "Postal Code": 1111,
      "Place Name": "Middelburg",
      "Latitude": -25.7833,
      "Longitude": 29.4667
    },
    {
      "Postal Code": 1112,
      "Place Name": "Witbank",
      "Latitude": -25.8667,
      "Longitude": 29.2333
    },
    {
      "Postal Code": 1120,
      "Place Name": "Lydenburg",
      "Latitude": -25.1,
      "Longitude": 30.45
    },
    {
      "Postal Code": 1121,
      "Place Name": "Belfast",
      "Latitude": -25.6833,
      "Longitude": 30.0333
    },
    {
      "Postal Code": 1122,
      "Place Name": "Lydenburg",
      "Latitude": -25.1,
      "Longitude": 30.45
    },
    {
      "Postal Code": 1123,
      "Place Name": "Lydenburg",
      "Latitude": -25.1,
      "Longitude": 30.45
    },
    {
      "Postal Code": 1126,
      "Place Name": "Lydenburg",
      "Latitude": -25.1,
      "Longitude": 30.45
    },
    {
      "Postal Code": 1127,
      "Place Name": "Sekhukhune",
      "Latitude": -25.1133,
      "Longitude": 30.31
    },
    {
      "Postal Code": 1128,
      "Place Name": "Driekop",
      "Latitude": -24.5833,
      "Longitude": 30.1667
    },
    {
      "Postal Code": 1130,
      "Place Name": "Belfast",
      "Latitude": -25.6833,
      "Longitude": 30.0333
    },
    {
      "Postal Code": 1131,
      "Place Name": "Driekop",
      "Latitude": -24.5833,
      "Longitude": 30.1667
    },
    {
      "Postal Code": 1132,
      "Place Name": "Nelspruit",
      "Latitude": -25.4667,
      "Longitude": 30.9667
    },
    {
      "Postal Code": 1151,
      "Place Name": "Belfast",
      "Latitude": -25.6833,
      "Longitude": 30.0333
    },
    {
      "Postal Code": 1152,
      "Place Name": "Belfast",
      "Latitude": -25.6833,
      "Longitude": 30.0333
    },
    {
      "Postal Code": 1153,
      "Place Name": "Belfast",
      "Latitude": -24.9333,
      "Longitude": 31.3667
    },
    {
      "Postal Code": 1154,
      "Place Name": "Penge",
      "Latitude": -24.3667,
      "Longitude": 30.3
    },
    {
      "Postal Code": 1160,
      "Place Name": "Burgersfort",
      "Latitude": -24.6667,
      "Longitude": 30.3333
    },
    {
      "Postal Code": 1185,
      "Place Name": "Carolina",
      "Latitude": -27.35,
      "Longitude": 28.4833
    },
    {
      "Postal Code": 1192,
      "Place Name": "Belfast",
      "Latitude": -25.6833,
      "Longitude": 30.0333
    },
    {
      "Postal Code": 1193,
      "Place Name": "Belfast",
      "Latitude": -25.6833,
      "Longitude": 30.0333
    },
    {
      "Postal Code": 1194,
      "Place Name": "Belfast",
      "Latitude": -25.6833,
      "Longitude": 30.0333
    },
    {
      "Postal Code": 1200,
      "Place Name": "Nelspruit",
      "Latitude": -25.4667,
      "Longitude": 30.9667
    },
    {
      "Postal Code": 1201,
      "Place Name": "Nelspruit",
      "Latitude": -25.4667,
      "Longitude": 30.9667
    },
    {
      "Postal Code": 1202,
      "Place Name": "Nelspruit",
      "Latitude": -25.4667,
      "Longitude": 30.9667
    },